Pleknaam	Historical Name	(GvH) Opmerking	(GvH) Wisselvorme	(GvH) Land	Province	(GvH) Kategorie	Description	latitude	longitude
Aan de Doorns				RSA	Western Cape	Nedersetting	Area	-33.6994444444444	19.49
Aberfeldy				RSA	Free State	Dorp	Town	-28.2297222222222	28.8577777777778
Aberfeldy				RSA	Free State	Dorp	Station	-28.2158333333333	28.8252777777778
Acornhoek				RSA	Mpumalanga	Dorp	Station	-24.595	31.0655555555556
Acornhoek				RSA	Mpumalanga	Dorp	Town	-24.5894444444444	31.0819444444444
Adelaide				RSA	Eastern Cape	Dorp	Town	-32.7063888888889	26.2955555555556
Adelaide				RSA	Eastern Cape	Dorp	Station	-32.7030555555556	26.2941666666667
Adendorp				RSA	Eastern Cape	Dorp	Urban Area	-32.2969444444444	24.5430555555556
Adendorp				RSA	Eastern Cape	Dorp	Station	-32.2938888888889	24.5597222222222
Agincourt				RSA	Mpumalanga	Plek	Town	-24.8275	31.2316666666667
Akani	Edinburgh	Voorheen Edinburgh		RSA	Mpumalanga	Nedersetting	Settlement	-24.676667	31.226667
Akasiapark				RSA	Western Cape	Voorstad	Station	-33.8944444444444	18.5291666666667
Alabama				RSA	North West	Gebied-Dorp	Town	-26.8716666666667	26.5930555555556
Albertinia				RSA	Western Cape	Dorp	Station	-34.2097222222222	21.5838888888889
Albertinia				RSA	Western Cape	Dorp	Urban Area	-34.2036111111111	21.5975
Alberton				RSA	Gauteng	Dorp	Urban Area	-26.2494444444444	28.1283333333333
Alberton				RSA	Gauteng	Dorp	Station	-26.2508333333333	28.1358333333333
Albertskroon				RSA	Gauteng	Voorstad	Town	-26.1613888888889	27.975
Albertville				RSA	Gauteng	Voorstad	Town	-26.1647222222222	27.9786111111111
Albertynshof				RSA	Northern Cape	Voorstad	Urban Area	-28.745	24.7555555555556
Aldam				RSA	Free State	Dorp	Town	-28.2886111111111	27.1613888888889
Alexandra				RSA	Gauteng	Township	Urban Area	-25.9727777777778	27.9875
Alexandra				RSA	Gauteng	Township	Urban Area	-26.1044444444444	28.0988888888889
Alexandria				RSA	Mpumalanga	Dorp	Town	-24.9583333333333	31.1633333333333
Alexandria				RSA	Eastern Cape	Dorp	Urban Area	-33.6530555555556	26.4094444444444
Alexandria				RSA	Eastern Cape	Dorp	Station	-33.6447222222222	26.4013888888889
Algiers				RSA	North West	Gebied-Dorp	Group of huts	-26.6172222222222	24.0630555555556
Algoapark				RSA	Eastern Cape	Voorstad	Urban Area	-33.8986111111111	25.5602777777778
Alice				RSA	Eastern Cape	Dorp	Station	-32.7911111111111	26.8344444444444
Alice				RSA	Eastern Cape	Dorp	Town	-32.7888888888889	26.8344444444444
Alicedale				RSA	Eastern Cape	Dorp	Urban Area	-33.3155555555556	26.0841666666667
Alicedale				RSA	Eastern Cape	Dorp	Station	-33.3136111111111	26.075
Alkmaar				RSA	Mpumalanga	Dorp	Station	-25.4413888888889	30.8266666666667
Allanridge				RSA	Free State	Dorp	Station	-27.7475	26.6577777777778
Allanridge				RSA	Free State	Dorp	Town	-27.7538888888889	26.625
Allanridge				RSA	Free State	Dorp	Urban Area	-27.7547222222222	26.6433333333333
aManzamnyama				RSA	KwaZulu-Natal	Sendingplek	Lake	-27.0286111111111	32.8233333333333
aManzamnyama				RSA	KwaZulu-Natal	Sendingplek	Perennial	-28.1797222222222	29.8094444444444
aManzamnyama				RSA	KwaZulu-Natal	Sendingplek	Mouth	-28.0275	29.9269444444444
aManzamnyama				RSA	KwaZulu-Natal	Sendingplek	Non Perennial	-28.8527777777778	30.0141666666667
aManzamnyama				RSA	KwaZulu-Natal	Sendingplek	Perennial	-28.8672222222222	31.7666666666667
aManzamnyama				RSA	KwaZulu-Natal	Sendingplek	Mouth	-28.9430555555556	31.7866666666667
aManzamnyama				RSA	KwaZulu-Natal	Sendingplek	Non Perennial	-29.2669444444444	31.0194444444444
aManzamnyama				RSA	KwaZulu-Natal	Sendingplek	Mouth	-29.4861111111111	31.0344444444444
aManzamnyama				RSA	KwaZulu-Natal	Sendingplek	Mouth	-30.5969444444444	29.7475
aManzamnyama				RSA	Eastern Cape	Sendingplek	Perennial	-31.3469444444444	29.5761111111111
Amatikulu				RSA	KwaZulu-Natal	Dorp	Station	-29.0511111111111	31.5313888888889
Amatikulu				RSA	KwaZulu-Natal	Dorp	Town	-29.0466666666667	31.5280555555556
Amersfoort				RSA	Mpumalanga	Dorp	Station	-27.0080555555556	29.8605555555556
Amersfoort				RSA	Mpumalanga	Dorp	Town	-27.0083333333333	29.8675
Amsterdam				RSA	Mpumalanga	Dorp	Town	-26.6266666666667	30.6663888888889
Anenous				RSA	Northern Cape	Plek	Area	-29.2402777777778	17.5861111111111
Annlin				RSA	Gauteng	Voorstad	Town	-25.655	28.1980555555556
Arcadia				RSA	Gauteng	Voorstad	Town	-25.7447222222222	28.2097222222222
Arcadia				RSA	Eastern Cape	Voorstad	Urban Area	-33.0083333333333	27.905
Arlington				RSA	Free State	Dorp	Station	-28.0297222222222	27.8544444444444
Arlington				RSA	Free State	Dorp	Town	-28.0286111111111	27.8530555555556
Arniston				RSA	Western Cape	Dorp	Urban Area	-34.6680555555556	20.2311111111111
Ashburton				RSA	KwaZulu-Natal	Dorp	Station	-29.6783333333333	30.4477777777778
Ashburton				RSA	KwaZulu-Natal	Dorp	Town	-29.6658333333333	30.4488888888889
Asherville				RSA	Eastern Cape	Gebied-Dorp	Urban Area	-32.2802777777778	24.5605555555556
Ashlea Gardens				RSA	Gauteng	Gebied-Dorp	Town	-25.7858333333333	28.2641666666667
Ashley				RSA	KwaZulu-Natal	Voorstad	Town	-29.825	30.8494444444444
Ashton				RSA	Western Cape	Dorp	Station	-33.8355555555556	20.0655555555556
Aspen Lakes				RSA	Gauteng	Voorstad	Town	-26.25	28.033333
Assen				RSA	North West	Dorp	Group of huts	-25.1677777777778	27.6036111111111
Athlone				RSA	KwaZulu-Natal	Voorstad	Town	-29.5794444444444	30.3558333333333
Athlone				RSA	KwaZulu-Natal	Voorstad	Town	-29.8019444444444	31.0302777777778
Athlone				RSA	Western Cape	Voorstad	Station	-33.9633333333333	18.5027777777778
Athlone				RSA	Western Cape	Voorstad	Urban Area	-33.9666666666667	18.505
Athol				RSA	Mpumalanga	Voorstad	Town	-24.7147222222222	31.3488888888889
Atholl Heights		Gedeelte van Westville		RSA	KwaZulu-Natal	Gedeelte	Town	-29.8102777777778	30.9202777777778
Atlantis				RSA	Western Cape	Dorp	Station	-33.5963888888889	18.4558333333333
Atlantis				RSA	Western Cape	Dorp	Urban Area	-33.5672222222222	18.5002777777778
Atteridgeville				RSA	Gauteng	Township	Station	-25.7622222222222	28.075
Atteridgeville				RSA	Gauteng	Township	Town	-25.7713888888889	28.0736111111111
Auckland Park				RSA	Gauteng	Voorstad	Town	-26.1869444444444	28.005
Augrabies				RSA	Northern Cape	Dorp	Town	-28.66	20.4305555555556
Augrabies				RSA	Northern Cape	Dorp	Area	-29.2619444444444	17.0919444444444
Aureus				RSA	Gauteng	Voorstad	Town	-26.1930555555556	27.6966666666667
Aurora				RSA	Limpopo	Dorp	Group of huts	-23.4558333333333	28.8788888888889
Aurora				RSA	Western Cape	Dorp	Urban Area	-32.7044444444444	18.485
Aurora				RSA	Western Cape	Dorp	Urban Area	-33.8302777777778	18.6319444444444
Baardskeerdersbos				RSA	Western Cape	Dorp	Town	-34.5888888888889	19.5702777777778
Badirile				RSA		Dorp	Town		
Badplaas				RSA	Mpumalanga	Dorp	Town	-25.9527777777778	30.5630555555556
Bakone				RSA	Limpopo	Nedersetting	Group of huts	-23.7511111111111	29.05
Bakoven				RSA	Western Cape	Nedersetting	Urban Area	-33.96	18.3827777777778
Balfour				RSA	Mpumalanga	Dorp	Town	-26.6555555555556	28.5911111111111
Balfour				RSA	Eastern Cape	Dorp	Area	-32.5375	26.6722222222222
Ballengeich				RSA	KwaZulu-Natal	Dorp	Town	-27.8969444444444	29.9736111111111
Ballengeich				RSA	KwaZulu-Natal	Dorp	Station	-27.8858333333333	29.9786111111111
Bandelierkop				RSA	Limpopo	Dorp	Town	-23.3183333333333	29.8027777777778
Bandelierkop				RSA	Limpopo	Dorp	Station	-23.3186111111111	29.8002777777778
Baroe				RSA	Eastern Cape	Nedersetting	Station	-33.2241666666667	24.5680555555556
Barrydale				RSA	Western Cape	Dorp	Urban Area	-33.905	20.7236111111111
Batho				RSA	Free State	Gebied-Dorp	Urban Area	-29.1369444444444	26.2297222222222
Bathurst				RSA	Eastern Cape	Dorp	Town	-33.4977777777778	26.8180555555556
Bathurst				RSA	Eastern Cape	Dorp	Station	-33.5044444444444	26.8430555555556
Baynesfield				RSA	KwaZulu-Natal	Dorp	Station	-29.7622222222222	30.3505555555556
Baynesfield				RSA	KwaZulu-Natal	Dorp	Town	-29.7597222222222	30.3513888888889
Beacon Bay				RSA	Eastern Cape	Voorstad	Urban Area	-32.9694444444444	27.9447222222222
Beaconsfield				RSA	Northern Cape	Gebied-Dorp	Station	-28.7611111111111	24.785
Beaconsfield				RSA	Northern Cape	Gebied-Dorp	Urban Area	-28.7541666666667	24.7836111111111
Bede				RSA	Eastern Cape	Dorp	Group of huts	-32.1997222222222	26.8272222222222
Bedford				RSA	Eastern Cape	Dorp	Town	-32.6783333333333	26.0883333333333
Bedford				RSA	Eastern Cape	Dorp	Station	-32.6844444444444	26.0841666666667
Bedfordview				RSA	Gauteng	Gebied-Dorp	Urban Area	-26.1763888888889	28.1425
Beestekraal				RSA	North West	Nedersetting	Station	-25.3736111111111	27.5969444444444
Begwa				RSA	Limpopo	Nedersetting	Town	-22.780701	30.799987
Bela-Bela				RSA	Limpopo	Dorp	Town	-24.883333	28.283333
Belfast				RSA	Mpumalanga	Gebied-Dorp	Group of huts	-24.9516666666667	31.3708333333333
Belfast				RSA	Mpumalanga	Gebied-Dorp	Town	-25.4213888888889	28.7788888888889
Belfast				RSA	Mpumalanga	Gebied-Dorp	Station	-25.7066666666667	30.0547222222222
Belfast				RSA	Mpumalanga	Gebied-Dorp	Town	-25.6866666666667	30.0336111111111
Bell				RSA	KwaZulu-Natal	Dorp	Kop	-28.9272222222222	29.1277777777778
Bell				RSA	Eastern Cape	Dorp	Town	-33.2477777777778	27.3575
Bella Vista				RSA	Western Cape	Voorstad	Urban Area	-33.3283333333333	19.3197222222222
Bellair				RSA	KwaZulu-Natal	Voorstad	Station	-29.8897222222222	30.9544444444444
Bellair				RSA	KwaZulu-Natal	Voorstad	Town	-29.8922222222222	30.9516666666667
Bellair				RSA	Western Cape	Voorstad	Urban Area	-33.8858333333333	18.6625
Bellevue				RSA	Limpopo	Voorstad	Group of huts	-23.4194444444444	30.4097222222222
Bellevue				RSA	Gauteng	Voorstad	Town	-26.1772222222222	28.07
Bellville				RSA	Western Cape	Stad	Station	-33.9063888888889	18.6272222222222
Bellville				RSA	Western Cape	Stad	Urban Area	-33.8980555555556	18.6277777777778
Belmont				RSA	Free State	Dorp	Town	-28.2411111111111	28.3066666666667
Belmont				RSA	Northern Cape	Dorp	Station	-29.4169444444444	24.3675
Belmont				RSA	Eastern Cape	Dorp	Kop	-32.0205555555556	26.3366666666667
Belvedere				RSA	KwaZulu-Natal	Voorstad	Town	-29.7713888888889	30.7747222222222
Belvedere				RSA	KwaZulu-Natal	Voorstad	Town	-29.5783333333333	31.0861111111111
Belvedere				RSA	Western Cape	Voorstad	Station	-34.0461111111111	22.9922222222222
Benoni				RSA	Gauteng	Dorp	Urban Area	-26.1902777777778	28.3063888888889
Benoni				RSA	Gauteng	Dorp	Station	-26.1980555555556	28.3108333333333
Benrose				RSA	Gauteng	Gebied-Nywerheid		-26.2102777777778	28.0813888888889
Berario				RSA	Gauteng	Voorstad	Town	-26.1333333333333	27.9541666666667
Berea				RSA	Gauteng	Voorstad	Town	-26.1822222222222	28.0533333333333
Berea				RSA	KwaZulu-Natal	Voorstad	Town	-29.8505555555556	31.0019444444444
Berea				RSA	Eastern Cape	Voorstad	Urban Area	-32.9902777777778	27.9172222222222
Bergville				RSA	KwaZulu-Natal	Dorp	Station	-28.7263888888889	29.3480555555556
Bergville				RSA	KwaZulu-Natal	Dorp	Urban Area	-28.7311111111111	29.3516666666667
Bergvliet				RSA	Western Cape	Voorstad	Urban Area	-34.0425	18.4452777777778
Berkshire Downs				RSA	KwaZulu-Natal	Voorstad	Town	-29.7875	30.8783333333333
Berlin		Nou Ntabozuko		RSA	Eastern Cape	Dorp	Town	-32.8833333333333	27.5794444444444
Berlin		Nou Ntabozuko		RSA	Eastern Cape	Dorp	Station	-32.8822222222222	27.5830555555556
Bertrams				RSA	Gauteng	Voorstad	Town	-26.1911111111111	28.0655555555556
Bethal				RSA	Mpumalanga	Dorp	Town	-26.4569444444444	29.4708333333333
Bethal				RSA	Mpumalanga	Dorp	Station	-26.4347222222222	29.4852777777778
Bethanie				NAM	North West	Nedersetting	Urban Area	-25.5552777777778	27.6086111111111
Bethel				RSA	North West	Sendingplek	Group of huts	-26.0636111111111	25.6686111111111
Bethel				RSA	Northern Cape	Sendingplek	Area	-29.8136111111111	17.5419444444444
Bethel				RSA	Northern Cape	Sendingplek	Area	-30.3819444444444	17.8358333333333
Bethelsdorp				RSA	Eastern Cape	Dorp	Urban Area	-33.8877777777778	25.51
Bethlehem				RSA	Free State	Dorp	Urban Area	-28.2308333333333	28.3088888888889
Bethlehem				RSA	Free State	Dorp	Station	-28.2236111111111	28.3027777777778
Bethlehem				RSA	KwaZulu-Natal	Dorp	Group of huts	-29.8052777777778	29.8683333333333
Bethulie				RSA	Free State	Dorp	Station	-30.4905555555556	25.9991666666667
Bethulie				RSA	Free State	Dorp	Urban Area	-30.4963888888889	25.9747222222222
Bezuidenhoutsvallei				RSA	Gauteng	Voorstad	Town	-26.1888888888889	28.0822222222222
Bhaziya	Baziya			RSA	KwaZulu-Natal	Nedersetting	River (not specified)	-28.217171	31.566279
Bholothwa				RSA	Eastern Cape	Dorp	Village	-31.9833	27.2
Bholothwa	Bolotwa			RSA	Eastern Cape	Dorp	Police_Station	-31.983333	27.2
Bholothwa	Bolotwa			RSA	Eastern Cape	Dorp	River (not specified)	-31.983333	27.183333
Bhongweni				RSA	Gauteng	Gebied-Dorp	Town	-26.1655555555556	27.7275
Bhongweni				RSA	Eastern Cape	Gebied-Dorp	Group of huts	-31.9972222222222	28.9647222222222
Bhongweni				RSA	Eastern Cape	Gebied-Dorp	Group of huts	-32.19	28.7397222222222
Biesiesvlei				RSA	North West	Dorp	Settlement	-26.3913888888889	25.9030555555556
Birchleigh				RSA	Gauteng	Voorstad	Station	-26.0669444444444	28.235
Birchleigh				RSA	Gauteng	Voorstad	Urban Area	-26.0580555555556	28.2369444444444
Birdhaven				RSA	Gauteng	Voorstad	Town	-26.1394444444444	28.0561111111111
Bishop Lavis				RSA	Western Cape	Voorstad	Urban Area	-33.9486111111111	18.5758333333333
Bishopscourt				RSA	Western Cape	Voorstad	Urban Area	-33.9886111111111	18.4466666666667
Bisley				RSA	KwaZulu-Natal	Voorstad	Station	-29.6572222222222	30.3836111111111
Bisley				RSA	KwaZulu-Natal	Voorstad	Town	-29.6491666666667	30.3894444444444
Bitterfontein				RSA	Western Cape	Dorp	Station	-31.0375	18.2655555555556
Bitterfontein				RSA	Western Cape	Dorp	Town	-31.0361111111111	18.2661111111111
Bizana				RSA	Eastern Cape	Dorp	Town	-30.8588888888889	29.8530555555556
Bizana				RSA	Eastern Cape	Dorp	Perennial	-31.5980555555556	29.3825
Bizana				RSA	Eastern Cape	Dorp	Group of huts	-31.5861111111111	29.3727777777778
Bizana				RSA	Eastern Cape	Dorp	Non Perennial	-32.6158333333333	27.2116666666667
Blackheath				RSA	Gauteng	Voorstad	Town	-26.1344444444444	27.9741666666667
Blackheath				RSA	Western Cape	Voorstad	Station	-33.9641666666667	18.7022222222222
Blackheath				RSA	Western Cape	Voorstad	Urban Area	-33.9583333333333	18.7027777777778
Blackhill				RSA	Mpumalanga	Dorp	Station	-25.9497222222222	29.1458333333333
Blackridge				RSA	KwaZulu-Natal	Voorstad	Station	-29.6097222222222	30.3163888888889
Blackridge				RSA	KwaZulu-Natal	Voorstad	Town	-29.6094444444444	30.3186111111111
Blairgowrie				RSA	Gauteng	Voorstad	Urban Area	-26.1111111111111	28.0075
Blanco				RSA	Western Cape	Dorp	Urban Area	-33.9472222222222	22.4147222222222
Blinkwater				RSA	Limpopo	Nedersetting	Group of huts	-23.4097222222222	30.3311111111111
Blinkwater				RSA	Mpumalanga	Nedersetting	Perennial	-25.5697222222222	31.1444444444444
Blinkwater				RSA	Free State	Nedersetting	Mouth	-27.8166666666667	29.6727777777778
Blinkwater				RSA	KwaZulu-Natal	Nedersetting	Mouth	-28.3425	30.1652777777778
Blinkwater				RSA	KwaZulu-Natal	Nedersetting	Kop	-29.2647222222222	30.4238888888889
Bloemfontein				RSA	Free State	Stad	Station	-29.1186111111111	26.2269444444444
Bloemfontein				RSA	Free State	Stad	Urban Area	-29.1158333333333	26.15
Bloemhof				RSA	North West	Dorp	Town	-27.6461111111111	25.6066666666667
Bloemhof				RSA	Western Cape	Dorp	Urban Area	-33.8794444444444	18.6488888888889
Bloubergrant				RSA	Western Cape	Gebied-Dorp	Urban Area	-33.8163888888889	18.4786111111111
Bloubergstrand				RSA		Voorstad	Urban Area	-33.8	18.45
Bloubergstrand				RSA	Western Cape	Voorstad	Sandy Area	-34.3244444444444	18.4227777777778
Blue Downs				RSA	Western Cape	Voorstad	Urban Area	-34	18.6975
Bluegum View				RSA	Gauteng	Voorstad	Town	-26.3816666666667	28.3933333333333
Bluff				RSA	Northern Cape	Voorstad	Kop	-28.9286111111111	17.4583333333333
Blythswood				RSA	Eastern Cape	Sendingplek	Town	-32.2202777777778	27.9927777777778
Boardwalk Manor				RSA	Gauteng	Voorstad	Residential Town	-25.8	28.333333
Boardwalk Villas				RSA	North West	Gebied-Dorp	Township	-25.783333	26.316667
Bobididi				RSA	Limpopo	Gebied	Kop	-23.61	28.1025
Bobididi				RSA	Limpopo	Gebied	Land Development	-24.833333	30.076111
Bochum				RSA	Limpopo	Dorp	Town	-23.2702777777778	29.1261111111111
Bodiam				RSA	Eastern Cape	Dorp	Group of huts	-33.2511111111111	27.4302777777778
Boekenhouthoek				RSA	Mpumalanga	Nedersetting	Town	-25.3075	29.0191666666667
Boesmansriviermond				RSA	Eastern Cape	Baai	Urban Area	-33.6852777777778	26.6552777777778
Boetsap				RSA	Northern Cape	Dorp	Group of huts	-27.9727777777778	24.4522222222222
Bohlokong				RSA	Limpopo	Gebied-Dorp	Kop	-24.1261111111111	30.1402777777778
Boikhutsong				RSA	Gauteng	Nedersetting	Group of huts	-25.5252777777778	28.0552777777778
Boipatong				RSA	Gauteng	Gebied-Dorp	Town	-26.67	27.8527777777778
Boitumelong				RSA	North West	Gebied-Dorp	Town	-27.6388888888889	25.5697222222222
Boitumelong				RSA	Free State	Gebied-Dorp	Urban Area	-29.3969444444444	24.9916666666667
Bojwana				RSA	Mpumalanga	Nedersetting	Town	-25.1469444444444	31.1580555555556
Bokbaai				RSA	Western Cape	Baai	Bay	-33.57	18.3283333333333
Boknesstrand				RSA	Eastern Cape	Dorp	Sandy Area	-33.7283333333333	26.5855555555556
Boksburg				RSA	Gauteng	Stad	Station	-26.2183333333333	28.2413888888889
Boksburg				RSA	Gauteng	Stad	Urban Area	-26.2125	28.2625
Bolo				RSA	Eastern Cape	Dorp	Town	-32.3797222222222	27.6313888888889
Bolo				RSA	Eastern Cape	Dorp	Mouth	-32.3391666666667	27.7191666666667
Bond's Drift				RSA	KwaZulu-Natal	Dorp	Bridge	-29.1738888888889	31.4222222222222
Bongolethu				RSA	Western Cape	Nedersetting	Urban Area	-33.5972222222222	22.2455555555556
Bonnievale				RSA	Western Cape	Dorp	Station	-33.9369444444444	20.1144444444444
Bonnievale				RSA	Western Cape	Dorp	Urban Area	-33.9275	20.1005555555556
Bontheuwel				RSA	Western Cape	Gebied-Dorp	Kop	-33.0608333333333	18.0561111111111
Bontheuwel				RSA	Western Cape	Gebied-Dorp	Urban Area	-33.9491666666667	18.5530555555556
Bontheuwel				RSA	Western Cape	Gebied-Dorp	Station	-33.9416666666667	18.55
Bontrug				RSA	Eastern Cape	Gebied-Dorp	Town	-33.3963888888889	25.4822222222222
Bontrug				RSA	Eastern Cape	Gebied-Dorp	Kop	-33.4022222222222	25.5222222222222
Bontrug				RSA	Eastern Cape	Gebied-Dorp	Ridge	-33.5361111111111	26.2283333333333
Booysens				RSA	Gauteng	Voorstad	Town	-25.7097222222222	28.1266666666667
Booysens				RSA	Gauteng	Voorstad	Station	-26.2244444444444	28.0408333333333
Booysens				RSA	Gauteng	Voorstad	Town	-26.2291666666667	28.0247222222222
Bophelong				RSA	Gauteng	Gebied-Dorp	Town	-26.6941666666667	27.7991666666667
Bordeaux				RSA	Limpopo	Voorstad	Group of huts	-24.0802777777778	30.3519444444444
Bordeaux				RSA	Gauteng	Voorstad	Urban Area	-26.0963888888889	28.0136111111111
Borwalathoto				RSA	Limpopo	Dorp	Town	-23.0719444444444	28.7180555555556
Bosbokrand				RSA	Mpumalanga	Dorp	Town	-24.8455555555556	31.0586111111111
Bosbokrand				RSA	Mpumalanga	Dorp	Mountain	-24.8491666666667	31.0605555555556
Bosfontein				RSA	Mpumalanga	Gebied-Dorp	Town	-25.7419444444444	31.6169444444444
Boshoek				RSA	North West	Nedersetting	Station	-25.4952777777778	27.1011111111111
Boshoek				RSA	KwaZulu-Natal	Nedersetting	Urban Area	-27.81	31.1069444444444
Boshoek				RSA	Western Cape	Nedersetting	Area	-32.3630555555556	19.0794444444444
Boshoek				RSA	Western Cape	Nedersetting	Kloof	-32.4572222222222	21.2844444444444
Boshoek				RSA	North West	Nedersetting	Town	-25.48009	27.096303
Boshof				RSA	Free State	Dorp	Town	-28.5391666666667	25.2380555555556
Boskop				RSA	North West	Dorp	Kop	-25.1041666666667	27.5330555555556
Boskop				RSA	Mpumalanga	Dorp	Kop	-25.8077777777778	30.5383333333333
Boskop				RSA	North West	Dorp	Kop	-26.2136111111111	26.6355555555556
Boskop				RSA	Gauteng	Dorp	Kop	-26.0908333333333	27.9527777777778
Boskop				RSA	North West	Dorp	Station	-26.5644444444444	27.1288888888889
Boskop				RSA	North West	Dorp	Town	-26.5652777777778	27.1283333333333
Boskop				RSA	Gauteng	Dorp	Kop	-26.8697222222222	28.2594444444444
Boskop				RSA	Free State	Dorp	Kop	-27.0644444444444	28.3569444444444
Boskop				RSA	Free State	Dorp	Kop	-28.1766666666667	25.6255555555556
Boskop				RSA	Free State	Dorp	Kop	-28.9963888888889	25.4072222222222
Boskop				RSA	Free State	Dorp	Kop	-28.3583333333333	26.1658333333333
Boskop				RSA	Free State	Dorp	Kop	-28.2441666666667	26.8516666666667
Boskop				RSA	Free State	Dorp	Kop	-29.3613888888889	25.9413888888889
Boskop				RSA	Northern Cape	Dorp	Kop	-30.2447222222222	20.6802777777778
Boskop				RSA	Northern Cape	Dorp	Kop	-30.5038888888889	24.7688888888889
Boskop				RSA	Free State	Dorp	Kop	-30.3838888888889	27.1311111111111
Boskop				RSA	Northern Cape	Dorp	Kop	-31.675	19.1130555555556
Boskop				RSA	Northern Cape	Dorp	Kop	-31.9669444444444	19.6769444444444
Boskop				RSA	Northern Cape	Dorp	Kop	-31.0113888888889	22.6119444444444
Boskop				RSA	Western Cape	Dorp	Kop	-32.7919444444444	22.3613888888889
Boskop				RSA	Western Cape	Dorp	Kop	-33.8125	20.2522222222222
Boskop				RSA	Western Cape	Dorp	Kop	-33.4319444444444	21.7308333333333
Boskop				RSA	Western Cape	Dorp	Kop	-33.0858333333333	22.1686111111111
Boskop				RSA	Western Cape	Dorp	Kop	-33.8602777777778	23.1402777777778
Boskop				RSA	Western Cape	Dorp	Kop	-34.3908333333333	19.4463888888889
Boskop				RSA	Western Cape	Dorp	Kop	-34.1377777777778	20.3111111111111
Boskop				RSA	Western Cape	Dorp	Kop	-34.2169444444444	20.7819444444444
Boskop				RSA	Western Cape	Dorp	Kop	-34.3488888888889	21.3572222222222
Bosmont				RSA	Gauteng	Voorstad	Station	-26.1830555555556	27.9516666666667
Bosmont				RSA	Gauteng	Voorstad	Town	-26.1911111111111	27.955
Botha's Hill				RSA	KwaZulu-Natal	Dorp	Town	-29.735	30.7355555555556
Botha's Hill				RSA	KwaZulu-Natal	Dorp	Station	-29.7541666666667	30.745
Botha's Hill				RSA	KwaZulu-Natal	Dorp	Town	-29.7588888888889	30.7552777777778
Botha's Hill				RSA	Eastern Cape	Dorp	Kop	-33.2419444444444	26.5869444444444
Bothasig				RSA	Western Cape	Voorstad	Urban Area	-33.1486111111111	18.66
Bothasig				RSA	Western Cape	Voorstad	Urban Area	-33.8594444444444	18.5411111111111
Bothaville				RSA	Free State	Dorp	Urban Area	-27.3888888888889	26.6166666666667
Bothaville				RSA	Free State	Dorp	Station	-27.3819444444444	26.6208333333333
Botrivier				RSA	Western Cape	Dorp	Station	-34.2266666666667	19.2061111111111
Botrivier				RSA	Western Cape	Dorp	Urban Area	-34.2258333333333	19.205
Botrivier				RSA	Western Cape	Dorp	Mouth	-34.3680555555556	19.0988888888889
Botshabelo				RSA	Limpopo	Gebied-Dorp;Sendingplek	Town	-23.4302777777778	30.5166666666667
Botshabelo				RSA	Limpopo	Gebied-Dorp;Sendingplek	Group of huts	-24.3711111111111	30.03
Botshabelo				RSA	North West	Gebied-Dorp;Sendingplek	Group of huts	-25.7997222222222	25.2630555555556
Botshabelo				RSA	Mpumalanga	Gebied-Dorp;Sendingplek	Town	-25.7019444444444	29.4116666666667
Botshabelo				RSA	Free State	Gebied-Dorp;Sendingplek	Urban Area	-29.2319444444444	26.6919444444444
Bowker's Bay				RSA	Eastern Cape	Baai	Bay	-32.5525	28.5547222222222
Braamfontein				RSA	Gauteng	Voorstad	Town	-26.1911111111111	28.0377777777778
Braamfontein				RSA	Gauteng	Voorstad	Station	-26.1975	28.0227777777778
Brackenfell				RSA	Western Cape	Dorp	Station	-33.8811111111111	18.6886111111111
Brackenfell				RSA	Western Cape	Dorp	Urban Area	-33.8830555555556	18.7
Braemar				RSA	KwaZulu-Natal	Dorp	Station	-30.3152777777778	30.5488888888889
Braemar				RSA	KwaZulu-Natal	Dorp	Area	-30.3125	30.5511111111111
Brakpan				RSA	Limpopo	Dorp	Non_Perennial	-23.6777777777778	27.2538888888889
Brakpan				RSA	Limpopo	Dorp	Non_Perennial	-23.9361111111111	27.2847222222222
Brakpan				RSA	North West	Dorp	Non_Perennial	-26.6044444444444	26.34
Brakpan				RSA	Gauteng	Dorp	Station	-26.24	28.3611111111111
Brakpan				RSA	Gauteng	Dorp	Urban Area	-26.2352777777778	28.37
Brakpan				RSA	Northern Cape	Dorp	Dry	-27.0458333333333	20.4463888888889
Brakpan				RSA	Northern Cape	Dorp	Dry	-27.0058333333333	20.5780555555556
Brakpan				RSA	Free State	Dorp		-27.9511111111111	26.5333333333333
Brakpan				RSA	Northern Cape	Dorp	Non_Perennial	-28.3744444444444	21.6491666666667
Brakpan				RSA	Northern Cape	Dorp	Non_Perennial	-28.7552777777778	24.1538888888889
Brakpan				RSA	Free State	Dorp	Non_Perennial	-28.1155555555556	25.8430555555556
Brakpan				RSA	Northern Cape	Dorp	Non_Perennial	-29.9622222222222	23.6219444444444
Brakpan				RSA	Northern Cape	Dorp	Dry	-30.4544444444444	19.6536111111111
Bramley				RSA	Gauteng	Voorstad	Urban Area	-26.1247222222222	28.0788888888889
Brandfort				RSA	Free State	Dorp	Urban Area	-28.6866666666667	26.4633333333333
Brandfort				RSA	Free State	Dorp	Station	-28.6980555555556	26.4727777777778
Brandrivier				RSA	Northern Cape	Nedersetting	Mouth	-29.9683333333333	17.9083333333333
Brandrivier				RSA	Western Cape	Nedersetting	Mouth	-32.5825	21.6744444444444
Brandrivier				RSA	Western Cape	Nedersetting	Mouth	-33.7366666666667	21.1827777777778
Brandvlei				RSA	Northern Cape	Dorp	Urban Area	-30.4633333333333	20.4861111111111
Brandvlei				RSA	Western Cape	Dorp	Urban Area	-33.7555555555556	19.4097222222222
Brandwacht				RSA	Western Cape	Gebied-Dorp	Town	-33.9566666666667	18.8719444444444
Brandwacht				RSA	Western Cape	Gebied-Dorp	Area	-33.5722222222222	19.4144444444444
Braunschweig				RSA	KwaZulu-Natal	Dorp	Town	-27.2897222222222	30.6722222222222
Bredasdorp				RSA	Western Cape	Dorp	Urban Area	-34.5330555555556	20.0427777777778
Bredasdorp				RSA	Western Cape	Dorp	Station	-34.5247222222222	20.0558333333333
Breidbach				RSA	Eastern Cape	Nedersetting	Town	-32.8877777777778	27.445
Breyten				RSA	Mpumalanga	Dorp	Town	-26.3016666666667	29.9872222222222
Breyten				RSA	Mpumalanga	Dorp	Station	-26.3052777777778	29.9886111111111
Brighton Beach				RSA	KwaZulu-Natal	Voorstad	Town	-29.9383333333333	31.0025
Brighton Beach				RSA	KwaZulu-Natal	Voorstad	Sandy Area	-29.9336111111111	31.0130555555556
Brits				RSA	North West	Dorp	Station	-25.6427777777778	27.7772222222222
Brits				RSA	North West	Dorp	Urban Area	-25.6297222222222	27.7841666666667
Britstown				RSA	Northern Cape	Dorp	Urban Area	-30.5872222222222	23.5038888888889
Britstown				RSA	Northern Cape	Dorp	Station	-30.5825	23.5036111111111
Brixton				RSA	Gauteng	Voorstad	Town	-26.1913888888889	27.9966666666667
Broederstroom				RSA	Limpopo	Nedersetting	Perennial	-23.7869444444444	29.99
Broederstroom				RSA	North West	Nedersetting	Group of huts	-25.7997222222222	27.8766666666667
Broederstroom				RSA	Eastern Cape	Nedersetting	Mouth	-32.2147222222222	24.5413888888889
Bronkhorstspruit				RSA	Gauteng	Dorp	Urban Area	-25.8080555555556	28.7413888888889
Bronkhorstspruit				RSA	Gauteng	Dorp	Station	-25.7938888888889	28.7469444444444
Bronkhorstspruit				RSA	Gauteng	Dorp	Mouth	-25.8083333333333	28.8519444444444
Bronkhorstspruit				RSA	Mpumalanga	Dorp	Perennial	-26.0175	28.6786111111111
Brooklyn				RSA	Mpumalanga	Voorstad	Town	-24.5947222222222	31.0005555555556
Brooklyn				RSA	Gauteng	Voorstad	Town	-25.7655555555556	28.2397222222222
Brooklyn				RSA	Western Cape	Voorstad	Urban Area	-33.9088888888889	18.4791666666667
Brummeria				RSA	Gauteng	Voorstad	Town	-25.7433333333333	28.2872222222222
Bruntville				RSA	KwaZulu-Natal	Gebied-Dorp	Town	-29.2205555555556	30.0144444444444
Bryanston				RSA	Gauteng	Voorstad	Urban Area	-26.0513888888889	28.0280555555556
Bryntirion				RSA	Gauteng	Voorstad	Town	-25.7405555555556	28.2275
Buccleuch				RSA	Gauteng	Gebied-Dorp	Urban Area	-26.0552777777778	28.1108333333333
Buffelsbaai				RSA	Western Cape	Baai	Urban Area	-34.0863888888889	22.9730555555556
Buffelsbaai				RSA		Baai	Bay	-34.0833333333333	22.9844444444444
Buffelshoek				RSA	North West	Nedersetting	Station	-25.6905555555556	26.0302777777778
Buffelshoek				RSA	Eastern Cape	Nedersetting	Area	-32.2986111111111	24.9663888888889
Buffelspoort				RSA	North West	Dorp	Kloof	-33.4261111111111	20.9625
Buffelspoort				RSA	North West	Dorp	Township	-25.75	27.485
Buffelspoort				RSA	North West	Dorp	Dam	-25.75	27.4833333333333
Buffelspruit				RSA	Limpopo	Nedersetting	Perennial	-24.8605555555556	28.2544444444444
Buffelspruit				RSA	Mpumalanga	Nedersetting	Non Perennial	-24.1541666666667	31.5638888888889
Buffelspruit				RSA	Mpumalanga	Nedersetting	Mouth	-24.1616666666667	31.5841666666667
Buffelspruit				RSA	Mpumalanga	Nedersetting	Mouth	-25.0488888888889	30.9363888888889
Buffelspruit				RSA	Mpumalanga	Nedersetting	Perennial	-25.9805555555556	30.4908333333333
Buffelspruit				RSA	Mpumalanga	Nedersetting	Town	-25.6586111111111	31.5191666666667
Buhlebesizwe	Vlaklaagte No.2			RSA	Mpumalanga	Nedersetting	Township	-25.42	28.77
Bulembu				RSA	Eastern Cape	Dorp	Other	-30.7447222222222	29.5469444444444
Bulembu				RSA	Eastern Cape	Dorp	Non Perennial	-31.3866666666667	28.8955555555556
Bulembu				RSA	Eastern Cape	Dorp	Kop	-31.2675	28.7536111111111
Bulembu				RSA	Eastern Cape	Dorp	Perennial	-31.9041666666667	28.7111111111111
Bulembu				RSA	Eastern Cape	Dorp	Group of huts	-32.8833333333333	27.2544444444444
Bultfontein				RSA	Gauteng	Dorp	Area	-25.4872222222222	28.2069444444444
Bultfontein				RSA	Free State	Dorp	Town	-28.2869444444444	26.1505555555556
Bultfontein				RSA	Free State	Dorp	Station	-28.2875	26.1413888888889
Bulwer				RSA	KwaZulu-Natal	Dorp	Station	-29.8758333333333	29.7766666666667
Bulwer				RSA	KwaZulu-Natal	Dorp	Town	-29.8052777777778	29.7672222222222
Bulwer				RSA	KwaZulu-Natal	Dorp	Town	-29.8583333333333	31.0033333333333
Burgersdorp				RSA	Limpopo	Dorp	Town	-24.0066666666667	30.3047222222222
Burgersdorp				RSA	Eastern Cape	Dorp	Urban Area	-30.9922222222222	26.3247222222222
Burgersdorp				RSA	Eastern Cape	Dorp	Station	-30.9991666666667	26.3241666666667
Burgersfort				RSA	Limpopo	Nedersetting	Station	-24.6755555555556	30.3313888888889
Burgersfort				RSA	Limpopo	Nedersetting	Town	-24.6736111111111	30.3283333333333
Butterworth				RSA	Eastern Cape	Dorp	Town	-32.3305555555556	28.1425
Butterworth				RSA	Eastern Cape	Dorp	Station	-32.3344444444444	28.1452777777778
Buxton				RSA	Eastern Cape	Dorp	Area	-32.5716666666667	26.6269444444444
Byrne				RSA	KwaZulu-Natal	Nedersetting	Town	-29.8252777777778	30.1844444444444
Calcutta				RSA	Mpumalanga	Gebied-Stedelik	Group of huts	-24.9747222222222	31.2344444444444
Caledon				RSA	Limpopo	Dorp	Group of huts	-23.2438888888889	30.3808333333333
Caledon				RSA	Western Cape	Dorp	Station	-34.2386111111111	19.4297222222222
Caledon				RSA	Western Cape	Dorp	Urban Area	-34.23	19.4283333333333
Calitzdorp				RSA	Western Cape	Dorp	Urban Area	-33.5327777777778	21.6880555555556
Calitzdorp				RSA	Western Cape	Dorp	Station	-33.5391666666667	21.6855555555556
Calvinia				RSA	Northern Cape	Dorp	Urban Area	-31.4694444444444	19.7772222222222
Calvinia				RSA	Northern Cape	Dorp	Station	-31.4627777777778	19.7825
Cambria				RSA	Eastern Cape	Nedersetting	Area	-33.6627777777778	24.5886111111111
Cambridge				RSA	Eastern Cape	Voorstad	Urban Area	-32.9772222222222	27.8911111111111
Cambridge				RSA	Eastern Cape	Voorstad	Station	-32.9725	27.8911111111111
Camden				RSA	Mpumalanga	Gebied-Stedelik	Town	-26.6	30.0886111111111
Camden				RSA	Mpumalanga	Gebied-Stedelik	Station	-26.6283333333333	30.0841666666667
Campbell				RSA	North West	Dorp	Town	-26.8933333333333	26.6552777777778
Campbell				RSA	Northern Cape	Dorp	Town	-28.7972222222222	23.7205555555556
Camperdown				RSA	KwaZulu-Natal	Dorp	Town	-29.7277777777778	30.5433333333333
Camperdown				RSA	KwaZulu-Natal	Dorp	Station	-29.7261111111111	30.5408333333333
Canca se Leegte				RSA	Western Cape	Nedersetting	Area	-34.2908333333333	21.6386111111111
Canelands				RSA	KwaZulu-Natal	Dorp	Town	-29.625	31.0580555555556
Canelands				RSA	KwaZulu-Natal	Dorp	Station	-29.6247222222222	31.0597222222222
Cannon Rocks				RSA	Eastern Cape	Dorp	Town	-33.7486111111111	26.5405555555556
Capital Park				RSA	Gauteng	Voorstad	Town	-25.7241666666667	28.1877777777778
Capital Park				RSA	Gauteng	Voorstad	Station	-25.7197222222222	28.1961111111111
Carletonville				RSA	North West	Dorp	Urban Area	-26.3613888888889	27.4016666666667
Carnarvon				RSA	Northern Cape	Dorp	Urban Area	-30.9677777777778	22.1333333333333
Carolina				RSA	Mpumalanga	Dorp	Town	-26.0688888888889	30.1163888888889
Carolina				RSA	Mpumalanga	Dorp	Station	-26.0708333333333	30.1252777777778
Cason				RSA	Gauteng	Voorstad	Town	-26.2091666666667	28.2569444444444
Casteel		Nou Maboke?		RSA	Mpumalanga	Nedersetting	Group of huts	-24.7225	31.0327777777778
Cathcart				RSA	Eastern Cape	Dorp	Town	-32.2980555555556	27.1455555555556
Cathcart				RSA	Eastern Cape	Dorp	Station	-32.2980555555556	27.1525
Cato Ridge				RSA	KwaZulu-Natal	Dorp	Station	-29.7305555555556	30.5897222222222
Cato Ridge				RSA	KwaZulu-Natal	Dorp	Town	-29.7341666666667	30.5877777777778
Cedarville				RSA	Eastern Cape	Dorp	Town	-30.3863888888889	29.0411111111111
Cedarville				RSA	Eastern Cape	Dorp	Station	-30.3791666666667	29.0402777777778
Cedarville				RSA	Eastern Cape	Dorp	Group of huts	-30.8672222222222	29.1366666666667
Cedrela				RSA	North West	Voorstad	Town	-25.8638888888889	26.8816666666667
Centane				RSA	Eastern Cape	Dorp	Town	-32.5	28.3166
Centocow				RSA	KwaZulu-Natal	Nedersetting	Station	-30.0602777777778	29.7825
Centurion				RSA	Gauteng	Dorp	Urban Area	-25.8363888888889	28.1802777777778
Ceres				RSA	Western Cape	Dorp	Urban Area	-33.3683333333333	19.3091666666667
Ceres				RSA	Western Cape	Dorp	Station	-33.3561111111111	19.3119444444444
Charl Cilliers				RSA	Mpumalanga	Dorp	Town	-26.6619444444444	29.1858333333333
Charlestown				RSA	KwaZulu-Natal	Dorp	Town	-27.4097222222222	29.8766666666667
Charlestown				RSA	KwaZulu-Natal	Dorp	Station	-27.4083333333333	29.8719444444444
Charlo				RSA	Eastern Cape	Voorstad	Urban Area	-33.9880555555556	25.5444444444444
Chatsworth				RSA	KwaZulu-Natal	Voorstad	Urban Area	-29.9177777777778	30.8936111111111
Chatsworth				RSA	KwaZulu-Natal	Voorstad	Town	-29.8941666666667	30.8677777777778
Chatsworth				RSA	Western Cape	Voorstad	Urban Area	-33.5461111111111	18.5827777777778
Chesterville				RSA	KwaZulu-Natal	Dorp	Town	-29.8477777777778	30.9475
Chiltern Hills				RSA	KwaZulu-Natal	Voorstad	Town	-29.8147222222222	30.9275
Chiselhurst				RSA	Eastern Cape	Voorstad	Urban Area	-32.9855555555556	27.8861111111111
Chiselhurst				RSA	Eastern Cape	Voorstad	Station	-32.9855555555556	27.8977777777778
Chochocho				RSA	Mpumalanga	Nedersetting	Town	-24.6977777777778	31.1216666666667
Christiana				RSA	North West	Dorp	Town	-27.9194444444444	25.1430555555556
Chrisville				RSA	Gauteng	Voorstad	Town	-26.2572222222222	28.0255555555556
Citrusdal				RSA	Western Cape	Dorp	Urban Area	-32.5894444444444	19.0147222222222
Clanwilliam				RSA	Western Cape	Dorp	Urban Area	-32.1786111111111	18.8911111111111
Claremont				RSA	Gauteng	Voorstad	Town	-25.7125	28.1380555555556
Claremont				RSA	Gauteng	Voorstad	Town	-26.1802777777778	27.9566666666667
Claremont				RSA	KwaZulu-Natal	Voorstad	Town	-27.7363888888889	30.1744444444444
Claremont				RSA	Western Cape	Voorstad	Urban Area	-33.9847222222222	18.4625
Claremont				RSA	Western Cape	Voorstad	Station	-33.9802777777778	18.4675
Clarendon				RSA	KwaZulu-Natal	Voorstad	Town	-29.5986111111111	30.3572222222222
Clarens				RSA	Free State	Dorp	Town	-28.5138888888889	28.4205555555556
Clarkebury				RSA	Eastern Cape	Sendingplek	Town	-31.7844444444444	28.2888888888889
Clarkson				RSA	Eastern Cape	Sendingplek	Town	-34.0108333333333	24.3433333333333
Cleveland				RSA	Gauteng	Voorstad	Station	-26.2080555555556	28.1191666666667
Clocolan				RSA	Free State	Dorp	Town	-28.9138888888889	27.5655555555556
Clocolan				RSA	Free State	Dorp	Station	-28.9244444444444	27.5844444444444
Clovelly				RSA	Western Cape	Dorp	Urban Area	-34.1222222222222	18.4294444444444
Clovelly				RSA	Western Cape	Dorp	Station	-34.1319444444444	18.4411111111111
Coalville				RSA	Mpumalanga	Dorp	Town	-26.03	29.1730555555556
Coega				RSA	Eastern Cape	Dorp	Station	-33.7627777777778	25.6569444444444
Coega				RSA	Eastern Cape	Dorp	Town	-33.7602777777778	25.6472222222222
Coldstream				RSA	Eastern Cape	Dorp	Urban Area	-33.9630555555556	23.7138888888889
Colenso				RSA	KwaZulu-Natal	Dorp	Station	-28.7358333333333	29.8269444444444
Colenso				RSA	KwaZulu-Natal	Dorp	Town	-28.7402777777778	29.825
Colenso				RSA	Free State	Dorp	Kop	-29.1761111111111	25.9616666666667
Colesberg				RSA	Northern Cape	Dorp	Urban Area	-30.7211111111111	25.0966666666667
Colesberg				RSA	Northern Cape	Dorp	Station	-30.7247222222222	25.1383333333333
Coligny				RSA	North West	Dorp	Urban Area	-26.3302777777778	26.3294444444444
Coligny				RSA	North West	Dorp	Station	-26.3288888888889	26.3208333333333
Concordia				RSA	Northern Cape	Dorp	Area	-29.45	17.8333333333333
Concordia				RSA	Northern Cape	Dorp	Group of huts	-29.53	17.9455555555556
Concordia				RSA	Western Cape	Dorp	Area	-34.0291666666667	23.0841666666667
Congella				RSA	KwaZulu-Natal	Voorstad	Station	-29.8775	30.9972222222222
Congella				RSA	KwaZulu-Natal	Voorstad	Town	-29.8713888888889	30.9975
Constantiapark				RSA	Gauteng	Voorstad	Town	-25.8080555555556	28.2822222222222
Cookhouse		Ook Kookhuis		RSA	Eastern Cape	Dorp	Urban Area	-32.7436111111111	25.8016666666667
Cookhouse		Ook Kookhuis		RSA	Eastern Cape	Dorp	Station	-32.7444444444444	25.8075
Cork				RSA	Mpumalanga	Gebied-Dorp	Group of huts	-24.9572222222222	31.3141666666667
Cork				RSA	KwaZulu-Natal	Gebied-Dorp	Group of huts	-27.9530555555556	30.275
Cornelia				RSA	Limpopo	Dorp	Group of huts	-23.7861111111111	29.1008333333333
Cornelia				RSA	Free State	Dorp	Urban Area	-27.2361111111111	28.8513888888889
Coronationville				RSA	Gauteng	Voorstad	Town	-26.19	27.9769444444444
Cosmo City				RSA	Gauteng	Gebied-Dorp	Township	-26.0333	27.9166
Cotswold				RSA	Eastern Cape	Voorstad	Urban Area	-33.9386111111111	25.5475
Cottesloe				RSA	Gauteng	Voorstad	Town	-26.1866666666667	28.0186111111111
Cowie's Hill				RSA	KwaZulu-Natal	Voorstad	Town	-29.8291666666667	30.8986111111111
Cravenby				RSA	Western Cape	Gebied-Dorp	Urban Area	-33.9247222222222	18.5916666666667
Creighton				RSA	KwaZulu-Natal	Dorp	Town	-30.0272222222222	29.8419444444444
Creighton				RSA	KwaZulu-Natal	Dorp	Station	-30.0294444444444	29.8361111111111
Croesus				RSA	Gauteng	Voorstad		-26.1972222222222	27.9644444444444
Croesus				RSA	Gauteng	Voorstad	Station	-26.2011111111111	27.9722222222222
Crosby				RSA	Gauteng	Voorstad	Town	-26.1927777777778	27.9838888888889
Crossroads				RSA	Western Cape	Gebied-Dorp	Urban Area	-33.9944444444444	18.5988888888889
Crown Gardens				RSA	Gauteng	Voorstad	Town	-26.2486111111111	28.0044444444444
Croydon				RSA	Gauteng	Voorstad	Urban Area	-26.1288888888889	28.1952777777778
Culemborgpark				RSA	Gauteng	Voorstad	Town	-26.1808333333333	27.6922222222222
Cullinan				RSA	Gauteng	Dorp	Station	-25.6741666666667	28.5191666666667
Cullinan				RSA	Gauteng	Dorp	Urban Area	-25.6705555555556	28.5288888888889
Cumakala				RSA	Eastern Cape	Gebied-Dorp	Perennial	-32.5894444444444	27.4416666666667
Cumakala				RSA	Eastern Cape	Gebied-Dorp	Urban Area	-32.56	27.4477777777778
Cyrildene				RSA	Gauteng	Voorstad	Town	-26.1730555555556	28.1036111111111
Cyrildene				RSA	KwaZulu-Natal	Voorstad	Town	-28.7555555555556	31.9013888888889
D'Almeida				RSA	Western Cape	Gebied-Dorp	Urban Area	-34.175	22.1016666666667
Daantjie				RSA	Mpumalanga	Nedersetting	Group of huts	-25.4280555555556	31.1961111111111
Dagbreek				RSA	Free State	Nedersetting	Urban Area	-27.9591666666667	26.7447222222222
Dal Josafat				RSA	Western Cape	Gebied-Nywerheid	Urban Area	-33.7097222222222	18.9791666666667
Dal Josafat				RSA	Western Cape	Gebied-Nywerheid	Station	-33.705	18.9813888888889
Dalton				RSA	KwaZulu-Natal	Dorp	Town	-29.3405555555556	30.6305555555556
Dalton				RSA	KwaZulu-Natal	Dorp	Station	-29.3430555555556	30.6327777777778
Dan Pienaar				RSA	Free State	Voorstad	Urban Area	-29.0863888888889	26.2155555555556
DaniÃ«lskuil				RSA	Northern Cape	Dorp	Town	-28.1872222222222	23.5588888888889
Dannhauser				RSA	KwaZulu-Natal	Dorp	Town	-28.0141666666667	30.0580555555556
Dannhauser				RSA	KwaZulu-Natal	Dorp	Station	-28.015	30.0619444444444
Danville				RSA	North West	Voorstad	Urban Area	-25.8777777777778	25.6611111111111
Danville				RSA	Gauteng	Voorstad	Town	-25.7388888888889	28.1272222222222
Darling				RSA	Western Cape	Dorp	Station	-33.3744444444444	18.3830555555556
Darling				RSA	Western Cape	Dorp	Town	-33.3772222222222	18.3791666666667
Dasbos				RSA	Western Cape	Plek	Area	-33.9072222222222	19.0377777777778
Daspoort				RSA	Gauteng	Voorstad	Station	-25.7138888888889	28.1663888888889
Daspoort				RSA	Gauteng	Voorstad	Town	-25.7086111111111	28.1466666666667
Daveyton				RSA	Gauteng	Gebied-Dorp	Station	-26.1558333333333	28.4247222222222
Daveyton				RSA	Gauteng	Gebied-Dorp	Urban Area	-26.1386111111111	28.425
De Aar				RSA	Northern Cape	Dorp	Station	-30.6502777777778	24.0141666666667
De Aar				RSA	Northern Cape	Dorp	Urban Area	-30.6505555555556	24.0075
De Doorns				RSA	Western Cape	Dorp	Urban Area	-33.4794444444444	19.6708333333333
De Doorns				RSA	Western Cape	Dorp	Station	-33.4827777777778	19.665
De Hoek				RSA	Western Cape	Dorp	Urban Area	-32.9408333333333	18.7591666666667
De Hoek				RSA	Western Cape	Dorp	Station	-32.9438888888889	18.7638888888889
De Hoop				RSA	Western Cape	Nedersetting	Area	-33.4816666666667	19.7913888888889
De Hoop				RSA	Western Cape	Nedersetting	Town	-33.6027777777778	22.0416666666667
De Hoop				RSA	Limpopo	Nedersetting	Group of huts	-23.1875	30.2813888888889
De Novo				RSA	Western Cape	Plek	Town	-33.8408333333333	18.7752777777778
De Rust				RSA	North West	Dorp	Area	-25.7625	27.8366666666667
De Rust				RSA	Western Cape	Dorp	Area	-32.6691666666667	21.2030555555556
De Rust				RSA	Western Cape	Dorp	Urban Area	-33.4894444444444	22.5344444444444
De Wildt				RSA	North West	Dorp	Station	-25.6236111111111	27.9477777777778
De Wildt				RSA	North West	Dorp	Group of huts	-25.6288888888889	27.9438888888889
Deal Party				RSA	Eastern Cape	Voorstad		-33.8986111111111	25.6144444444444
Dealesville				RSA	Free State	Dorp	Town	-28.675	25.7680555555556
Deelfontein				RSA	Northern Cape	Dorp	Station	-30.9891666666667	23.8025
Deerness				RSA	Gauteng	Voorstad	Station	-25.7197222222222	28.2161111111111
Delareyville				RSA	North West	Dorp	Urban Area	-26.6883333333333	25.4777777777778
Delareyville				RSA	North West	Dorp	Station	-26.6936111111111	25.4569444444444
Delft				RSA	Western Cape	Gebied-Dorp	Urban Area	-33.9655555555556	18.6444444444444
Delmas				RSA	Mpumalanga	Dorp	Station	-26.1525	28.6805555555556
Delmas				RSA	Mpumalanga	Dorp	Urban Area	-26.1461111111111	28.6836111111111
Dendron				RSA	Limpopo	Dorp	Town	-23.3683333333333	29.3247222222222
Deneysville				RSA	Free State	Dorp	Urban Area	-26.89	28.0963888888889
Denver				RSA	Gauteng	Voorstad	Station	-26.2055555555556	28.0972222222222
Denver				RSA	Gauteng	Voorstad	Town	-26.2075	28.1002777777778
Deorham				RSA	Northern Cape	Gebied-Stedelik	Group of huts	-26.8930555555556	23.5086111111111
Desainagar				RSA	KwaZulu-Natal	Dorp	Town	-29.6113888888889	31.1533333333333
Despatch				RSA	Gauteng	Dorp		-25.7180555555556	28.3236111111111
Despatch				RSA	Eastern Cape	Dorp	Urban Area	-33.8002777777778	25.475
Devon				RSA	Gauteng	Dorp	Station	-26.3555555555556	28.7822222222222
Devon				RSA	Gauteng	Dorp	Town	-26.3572222222222	28.7816666666667
Dewetsdorp				RSA	Free State	Dorp	Station	-29.5697222222222	26.6869444444444
Dewetsdorp				RSA	Free State	Dorp	Town	-29.5822222222222	26.6641666666667
Die Kelders		Wisselvorm bygevoeg n.a.v. Wikipedia	De Kelders	RSA	Western Cape	Baai	Urban Area	-34.5572222222222	19.365
Die Moot		Beslis bewoon		RSA	North West	Streek	Station	-25.8566666666667	27.6911111111111
Die Moot		Beslis bewoon		RSA	Eastern Cape	Streek	Area	-33.3269444444445	25.1747222222222
Diepgezet				RSA	Mpumalanga	Nedersetting	Town	-26.0044444444444	31.0769444444444
Digwale		Naam hersien vanaf Dikgwale?		RSA	Mpumalanga	Dorp	Mountain	-25.1961	28.8553
Dimbaza				RSA	Eastern Cape	Dorp	Town	-32.8352777777778	27.2158333333333
Dimbaza				RSA	Eastern Cape	Dorp	Station	-32.8272222222222	27.1983333333333
Dingamanzi				RSA	Limpopo	Gebied-Dorp	Town	-23.3786111111111	30.5805555555556
Dipelaneng				RSA	Free State	Gebied-Dorp	Kop	-28.6127777777778	28.7902777777778
Discovery				RSA	Gauteng	Gebied-Dorp	Town	-26.1605555555556	27.8925
Dithabaneng				RSA	Limpopo	Nedersetting	Group of huts	-23.2197222222222	28.9297222222222
Dithabaneng				RSA	Limpopo	Nedersetting	Group of huts	-24.3613888888889	29.5844444444444
Dithabaneng				RSA	Limpopo	Nedersetting	Town	-24.4705555555556	30.2244444444444
Dithabaneng				RSA	Limpopo	Nedersetting	Group of huts	-24.3113888888889	30.0686111111111
Dithabaneng				RSA	North West	Nedersetting	Urban Area	-25.5877777777778	27.1547222222222
Dithabaneng				RSA	Limpopo	Nedersetting	Post Office	-24.366667	29.583333
Ditlhagane				RSA	Mpumalanga	Nedersetting	Group of huts	-24.9563888888889	28.8377777777778
Ditlhagane	Paayzypan			RSA	Mpumalanga	Nedersetting	Village	-24.95	28.8333333333333
Ditshoka				RSA	North West	Dorp	Town	-25.3238888888889	25.8172222222222
Ditshoka				RSA	North West	Dorp	Village	-25.31703	25.8166
Donkergat				RSA	Western Cape	Nedersetting	Bay	-31.7863888888889	18.2319444444444
Donkergat				RSA	Western Cape	Nedersetting	Area	-32.2536111111111	22.5486111111111
Donkergat				RSA		Nedersetting	Bay	-33.0805555555556	18.0044444444444
Donkergat				RSA	Western Cape	Nedersetting	Urban Area	-33.0819444444444	18.0016666666667
Donkerpoort				RSA	Free State	Dorp	Station	-30.5319444444444	25.4961111111111
Donnybrook				RSA	KwaZulu-Natal	Dorp	Station	-29.9211111111111	29.8725
Donnybrook				RSA	KwaZulu-Natal	Dorp	Town	-29.9269444444444	29.8769444444444
Doonside				RSA	KwaZulu-Natal	Baai	Town	-30.0716666666667	30.8683333333333
Doonside				RSA	KwaZulu-Natal	Baai	Station	-30.0708333333333	30.8738888888889
Doornfontein				RSA	North West	Voorstad	Town	-26.3963888888889	27.3238888888889
Doornfontein				RSA	Gauteng	Voorstad	Station	-26.1966666666667	28.0547222222222
Doornfontein				RSA	Gauteng	Voorstad	Town	-26.1941666666667	28.0577777777778
Doornkop				RSA	Gauteng	Nedersetting	Town	-26.2436111111111	27.8069444444444
Dordrecht				RSA	Eastern Cape	Dorp	Urban Area	-31.3730555555556	27.0469444444444
Dordrecht				RSA	Eastern Cape	Dorp	Station	-31.3816666666667	27.0452777777778
Doringbaai				RSA	Northern Cape	Dorp	Bay	-29.1613888888889	16.8375
Doringbaai				RSA	Northern Cape	Dorp	Bay	-29.5241666666667	16.9994444444444
Doringbaai				RSA	Western Cape	Dorp	Town	-31.8172222222222	18.2375
Doringbaai				RSA	Western Cape	Dorp	Bay	-31.8138888888889	18.2363888888889
Doringbaai				RSA		Dorp	Bay	-34.3827777777778	18.8605555555556
Douglas				RSA	Mpumalanga	Dorp	Town	-26.0269444444444	29.3691666666667
Douglas				RSA	Northern Cape	Dorp	Urban Area	-29.0541666666667	23.8336111111111
Drieankerbaai				RSA	Western Cape	Voorstad	Bay	-33.9055555555556	18.3980555555556
Drieankerbaai				RSA	Western Cape	Voorstad	Urban Area	-33.9091666666667	18.3955555555556
Driekoppies				RSA	Limpopo	Gebied-Dorp	Town	-23.2291666666667	28.7063888888889
Driekoppies				RSA	Mpumalanga	Gebied-Dorp	Town	-25.6944444444444	31.5597222222222
Driekoppies				RSA	Free State	Gebied-Dorp	Kop	-29.1758333333333	25.6205555555556
Drummond				RSA	KwaZulu-Natal	Dorp	Station	-29.7477777777778	30.6997222222222
Drummond				RSA	KwaZulu-Natal	Dorp	Town	-29.7477777777778	30.6977777777778
Dube				RSA	Gauteng	Voorstad	Town	-26.2386111111111	27.8927777777778
Dube				RSA	Gauteng	Voorstad	Station	-26.2325	27.8927777777778
Dube				RSA	KwaZulu-Natal	Voorstad	Kop	-28.1472222222222	31.1708333333333
Dududu				RSA	KwaZulu-Natal	Dorp	Non Perennial	-30.3816666666667	30.3066666666667
Dududu				RSA	KwaZulu-Natal	Dorp	Area	-30.1905555555556	30.6186111111111
Duduza				RSA	Gauteng	Gebied-Dorp	Town	-26.3730555555556	28.4080555555556
Duineveld				NAM	Northern Cape	Gebied	Area	-29.9741666666667	17.2083333333333
Duiwelskloof				RSA	Limpopo	Dorp	Town	-23.6919444444444	30.1405555555556
Duiwelskloof				RSA	Northern Cape	Dorp	Kloof	-29.6419444444444	17.0883333333333
Duiwelskloof				RSA	Free State	Dorp	Kloof	-29.7583333333333	26.8447222222222
Duiwelskloof				RSA	Western Cape	Dorp	Kloof	-34.1191666666667	20.3355555555556
Dullstroom		Blykbaar verander		RSA	Mpumalanga	Dorp	Station	-25.4225	30.0991666666667
Dullstroom		Blykbaar verander		RSA	Mpumalanga	Dorp	Town	-25.4155555555556	30.1052777777778
Dundee				RSA	KwaZulu-Natal	Dorp	Urban Area	-28.1613888888889	30.235
Dundee				RSA	KwaZulu-Natal	Dorp	Station	-28.1647222222222	30.2305555555556
Dunkeld				RSA	Gauteng	Voorstad	Urban Area	-26.1358333333333	28.0411111111111
Durban				RSA		Stad	Urban Area	-29.8541666666667	31.05
Durban				RSA	KwaZulu-Natal	Stad	Station	-29.8447222222222	31.0238888888889
Durban				RSA	Eastern Cape	Stad	Group of huts	-33.2047222222222	27.1391666666667
Durbanville				RSA	Western Cape	Gebied-Dorp	Urban Area	-33.8402777777778	18.6494444444444
Dutywa		?		RSA	Eastern Cape	Dorp	Mouth	-31.975	28.4697222222222
Dutywa		?		RSA	Eastern Cape	Dorp	Town	-32.083	28.2833
Dwaalboom				RSA	Limpopo	Dorp	Town	-24.7230555555556	26.8183333333333
Dwarskersbos				RSA	Western Cape	Baai	Station	-32.6508333333333	18.3025
Dwarskersbos				RSA	Western Cape	Baai	Urban Area	-32.6958333333333	18.2277777777778
Dwarsloop				RSA	Mpumalanga	Nedersetting	Town	-24.7977777777778	31.0758333333333
Dzanani				RSA	Limpopo	Township	Area	-22.8772222222222	30.1466666666667
Dzanani				RSA	Limpopo	Township	Township	-22.8833333333333	30.0333333333333
Early Dawn				RSA	North West	Voorstad	Town	-26.0833	26.0833
East Town				RSA	Gauteng	Voorstad	Town	-26.155	27.9783333333333
Ebenhaeser		Wisselvorm bygevoeg n.a.v. Wikipedia	Ebenhaezer	RSA	Western Cape	Sendingplek	Area	-31.5847222222222	18.2261111111111
Edenburg				RSA	Free State	Dorp	Station	-29.7347222222222	25.9305555555556
Edenburg				RSA	Free State	Dorp	Town	-29.7347222222222	25.9369444444444
Edendale				RSA	KwaZulu-Natal	Gebied-Dorp	Urban Area	-29.6527777777778	30.3147222222222
Edendale				RSA	KwaZulu-Natal	Gebied-Dorp	Station	-29.6533333333333	30.2994444444444
Edenvale				RSA	Gauteng	Dorp	Urban Area	-26.1366666666667	28.1511111111111
Edenvale				RSA	Eastern Cape	Dorp	Area	-32.3147222222222	24.5680555555556
Edenville				RSA	Free State	Dorp	Urban Area	-27.5536111111111	27.6755555555556
Edleen				RSA	Gauteng	Voorstad	Urban Area	-26.0925	28.2022222222222
Edludluma				RSA		Nedersetting	Settlement	-25.95	31.65
Eendekuil				RSA	Western Cape	Nedersetting	Station	-32.6875	18.8819444444444
Eendekuil				RSA	Western Cape	Nedersetting	Town	-32.6872222222222	18.8838888888889
Eendrag				RSA	Mpumalanga	Dorp	Town	-26.3758333333333	28.8836111111111
Eendrag				RSA	Mpumalanga	Dorp	Station	-26.3844444444444	28.8852777777778
Eerste Fabrieke				RSA	Gauteng	Gebied-Nywerheid	Station	-25.7213888888889	28.3602777777778
Eerstegoud				RSA	Limpopo	Dorp	Station	-23.985	29.3516666666667
Eersterus				RSA	Gauteng	Gebied-Dorp	Town	-25.7027777777778	28.3161111111111
Eersterus				RSA	Gauteng	Gebied-Dorp	Station	-25.7194444444444	28.3075
Eersterus				RSA	Northern Cape	Gebied-Dorp	Settlement	-27.0019444444444	20.9647222222222
eHlanzeni				RSA	KwaZulu-Natal	Sendingplek	Kop	-30.2147222222222	30.6911111111111
Eisleben				RSA	Limpopo	Gebied-Dorp	Group of huts	-23.5263888888889	29.8386111111111
Ekulindeni				RSA	Mpumalanga	Nedersetting	Town	-26.0466666666667	31.0216666666667
Ekulindeni				RSA	Mpumalanga	Nedersetting	Settlement	-26.0833333333333	31.0333333333333
Elandsbaai				RSA		Baai	Bay	-32.3002777777778	18.3369444444444
Elandsbaai				RSA	Western Cape	Baai	Urban Area	-32.3108333333333	18.345
Elangeni				RSA	KwaZulu-Natal	Gebied-Dorp	Town	-29.795	30.6613888888889
Eldoraigne				RSA	Gauteng	Voorstad	Town	-25.8444444444444	28.1580555555556
Electron				RSA	Gauteng	Voorstad	Town	-26.2408333333333	28.0983333333333
Elgin				RSA	Western Cape	Dorp	Station	-34.1505555555556	19.0419444444444
Elgin				RSA	Western Cape	Dorp	Urban Area	-34.1486111111111	19.0427777777778
Elim				RSA	Limpopo	Nedersetting	Town	-23.155	30.0508333333333
Elim				RSA	Western Cape	Nedersetting	Urban Area	-34.5911111111111	19.7572222222222
Elliot				RSA	Eastern Cape	Dorp	Urban Area	-31.3338888888889	27.8491666666667
Elliot				RSA	Eastern Cape	Dorp	Station	-31.3380555555556	27.8452777777778
Elliotdale				RSA	Eastern Cape	Dorp	Town	-31.9641666666667	28.6844444444444
Ellisras		Nou Lephalale		RSA	Limpopo	Dorp	Urban Area	-23.6697222222222	27.74
Eloffsdal				RSA	Gauteng	Voorstad	Town	-25.7116666666667	28.1905555555556
Elsburg				RSA	Gauteng	Voorstad	Town	-26.2441666666667	28.1988888888889
Elsburg				RSA	Gauteng	Voorstad	Station	-26.2427777777778	28.1919444444444
eMantlaneni				RSA	Eastern Cape	Dorp	Group of huts	-31.1072222222222	29.3208333333333
eMantlaneni				RSA	Eastern Cape	Dorp	Group of huts	-32.2041666666667	28.3941666666667
EmaNtlaneni				RSA	Eastern Cape	Dorp	Post Office	-31.05	29.533333
eMatshamnyama	Matshamnyama			RSA		Dorp	Village	-25.1	31.87
Emberton				RSA	KwaZulu-Natal	Dorp	Station	-29.7930555555556	30.8008333333333
Emberton				RSA	KwaZulu-Natal	Dorp	Town	-29.79	30.8013888888889
Embhojeni	Jeppe's Reef			RSA	Mpumalanga	Nedersetting	Settlement	-25.7166666666667	31.4666666666667
eMboloba	Mboloba			RSA	KwaZulu-Natal	Dorp	Village	-27.31	31.55
Emjejane				RSA	Mpumalanga	Nedersetting	Settlement	-25.433328	31.66636
eMkhwakhweni	Mkhwakhweni			RSA		Dorp	Village	-28.36	30.93
eMmangweni				RSA	Eastern Cape	Sendingplek	Group of huts	-31.5313888888889	28.3022222222222
eMmangweni				RSA	Eastern Cape	Sendingplek	Group of huts	-31.965	28.0394444444444
eMmangweni				RSA	Eastern Cape	Sendingplek	Group of huts	-31.8275	28.0111111111111
eMmangweni				RSA	Eastern Cape	Sendingplek	Group of huts	-32.0027777777778	28.0538888888889
eMmangweni				RSA	Eastern Cape	Sendingplek	Group of huts	-32.4447222222222	28.0383333333333
Emmarentia				RSA	Gauteng	Voorstad	Town	-26.1472222222222	27.9958333333333
Empangeni				RSA	KwaZulu-Natal	Dorp	Urban Area	-28.7461111111111	31.8972222222222
Empangeni				RSA	KwaZulu-Natal	Dorp	Station	-28.7716666666667	31.9088888888889
Emshinini				RSA		Dorp	Town	0	0
eMsuzwaneni				RSA	KwaZulu-Natal	Dorp	Village	-27.29	31.94
Emtfuntini	Langeloop			RSA	Mpumalanga	Nedersetting	Settlement	-25.667304	-25.667304
Emthonjeni				RSA	Mpumalanga	Gebied-Dorp	Urban Area	-25.6833333333333	30.2277777777778
Emthonjeni				RSA	Eastern Cape	Gebied-Dorp	Group of huts	-31.7916666666667	27.1116666666667
Emthonjeni				RSA	Eastern Cape	Gebied-Dorp	Town	-31.9197222222222	27.0458333333333
Emthonjeni				RSA	Eastern Cape	Gebied-Dorp	Group of huts	-32.6988888888889	27.5586111111111
eMzinoni				RSA	Mpumalanga	Gebied-Dorp	Town	-26.4741666666667	29.4552777777778
eNdaleni				RSA	KwaZulu-Natal	Gebied-Stedelik	Group of huts	-29.8836111111111	30.2533333333333
Engcobo				RSA	Eastern Cape	Dorp	Town	-31.675	27.9961111111111
eNkovukeni				RSA	KwaZulu-Natal	Nedersetting	Area	-26.9216666666667	32.8697222222222
Enkovukeni				RSA	KwaZulu-Natal	Nedersetting	Lake	-26.9033333333333	32.8716666666667
Enon				RSA	Eastern Cape	Dorp	Town	-33.3938888888889	25.5463888888889
Enstra				RSA	Gauteng	Gebied-Nywerheid		-26.2052777777778	28.4436111111111
Erasmia				RSA	Gauteng	Voorstad	Town	-25.8133333333333	28.0927777777778
Ermelo				RSA	Mpumalanga	Dorp	Station	-26.5211111111111	29.9997222222222
Ermelo				RSA	Mpumalanga	Dorp	Town	-26.5155555555556	29.9922222222222
Esaurinca				RSA	Limpopo	Dorp	Settlement	-22.933647	28.8166
Escombe				RSA	KwaZulu-Natal	Voorstad	Station	-29.8727777777778	30.9008333333333
Escombe				RSA	KwaZulu-Natal	Voorstad	Town	-29.8758333333333	30.9086111111111
Eshowe				RSA	KwaZulu-Natal	Dorp	Urban Area	-28.8872222222222	31.4708333333333
Eshowe				RSA	KwaZulu-Natal	Dorp	Station	-28.8975	31.4627777777778
Esibayeni		Gewysig vanaf Sibayeni		RSA	Mpumalanga	Nedersetting	Settlement	-25.668078	31.848111
eSivule	Sivule			RSA	KwaZulu-Natal	Dorp	Village	-27.3	31.41
Eskdale		Bewoon?		RSA	North West	Plek	Group of huts	-26.7766666666667	23.6944444444444
Estcourt				RSA	KwaZulu-Natal	Dorp	Station	-29.0105555555556	29.8736111111111
Estcourt				RSA	KwaZulu-Natal	Dorp	Urban Area	-29.0102777777778	29.8686111111111
Evander				RSA	Mpumalanga	Gebied-Dorp	Town	-26.4677777777778	29.1113888888889
Excelsior				RSA	Free State	Dorp	Town	-28.9388888888889	27.0619444444444
Fairland				RSA	Gauteng	Voorstad	Town	-26.1336111111111	27.9444444444444
Fairmount				RSA	Gauteng	Voorstad	Town	-26.1438888888889	28.1022222222222
Fairview				RSA	Mpumalanga	Voorstad	Station	-25.7169444444444	30.2208333333333
Fairview				RSA	KwaZulu-Natal	Voorstad	Town	-28.7566666666667	31.8930555555556
Fairview				RSA	Free State	Voorstad	Area	-29.1730555555556	26.3827777777778
Fairview				RSA	Eastern Cape	Voorstad	Urban Area	-33.9741666666667	25.5502777777778
Farrarmere				RSA	Gauteng	Voorstad	Town	-26.1647222222222	28.2938888888889
Faure				RSA	Western Cape	Dorp	Station	-34.0266666666667	18.7488888888889
Faure				RSA	Western Cape	Dorp	Urban Area	-34.0330555555556	18.7569444444444
Fauresmith				RSA	Free State	Dorp	Town	-29.7483333333333	25.3147222222222
Fauresmith				RSA	Free State	Dorp	Station	-29.7477777777778	25.3113888888889
Fayini				RSA	Limpopo	Nedersetting	Mouth	-22.7794444444444	31.2688888888889
Felixton				RSA	KwaZulu-Natal	Dorp	Town	-28.8280555555556	31.8930555555556
Felixton				RSA	KwaZulu-Natal	Dorp	Station	-28.8366666666667	31.8880555555556
Ferndale				RSA	Gauteng	Voorstad	Town	-26.0847222222222	27.9894444444444
Ferndale				RSA	North West	Voorstad	Station	-27.6952777777778	25.4252777777778
Fernglen				RSA	Eastern Cape	Voorstad	Urban Area	-33.9477777777778	25.5475
Ficksburg				RSA	Free State	Dorp	Urban Area	-28.8738888888889	27.8794444444444
Ficksburg				RSA	Free State	Dorp	Station	-28.8644444444444	27.8769444444444
Field's Hill				RSA	KwaZulu-Natal	Voorstad	Town	-29.7969444444444	30.8419444444444
Flagstaff				RSA	Eastern Cape	Dorp	Town	-31.0802777777778	29.4958333333333
Fletcherville				RSA	Eastern Cape	Dorp	Group of huts	-30.6108333333333	28.3966666666667
Floors				RSA	Northern Cape	Voorstad	Urban Area	-28.72	24.7652777777778
Florida				RSA	Gauteng	Voorstad	Town	-26.1752777777778	27.9233333333333
Florida				RSA	Gauteng	Voorstad	Station	-26.1763888888889	27.9147222222222
Fochville				RSA	North West	Dorp	Town	-26.4866666666667	27.4933333333333
Fochville				RSA	North West	Dorp	Station	-26.5358333333333	27.4977777777778
Folovhodwe				RSA	Limpopo	Dorp	Post Office	-22.583333	30.4
Fontaine Du Champ				RSA	Limpopo	Dorp	Settlement	-22.900852	28.882653
Fontainebleau				RSA	Gauteng	Voorstad	Town	-26.1011111111111	27.9747222222222
Fonteine				RSA	Gauteng	Dorp	Station	-25.7827777777778	28.1930555555556
Fonteine				RSA	Gauteng	Dorp	Area	-25.7844444444444	28.2005555555556
Fordsburg				RSA	Gauteng	Voorstad	Town	-26.2055555555556	28.0222222222222
Fordsburg				RSA	KwaZulu-Natal	Voorstad	Town	-28.9933333333333	29.8669444444444
Forest Hill				RSA	Gauteng	Voorstad	Town	-26.2544444444444	28.0394444444444
Forest Town				RSA	Gauteng	Voorstad	Town	-26.1727777777778	28.0366666666667
Fort Beaufort				RSA	Eastern Cape	Dorp	Town	-32.7686111111111	26.6358333333333
Fort Beaufort				RSA	Eastern Cape	Dorp	Station	-32.7797222222222	26.6386111111111
Fort Nottingham				RSA	KwaZulu-Natal	Dorp	Town	-29.4180555555556	29.9063888888889
Fouriesburg				RSA	Free State	Dorp	Station	-28.5833333333333	28.1322222222222
Fouriesburg				RSA	Free State	Dorp	Town	-28.6197222222222	28.2088888888889
Frankfort				RSA	Free State	Dorp	Town	-27.28	28.4938888888889
Frankfort				RSA	Free State	Dorp	Station	-27.2766666666667	28.5077777777778
Frankfort				RSA	Eastern Cape	Dorp	Group of huts	-32.7272222222222	27.4652777777778
Franklin Roosevelt Park				RSA	Gauteng	Voorstad	Town	-26.1491666666667	27.9863888888889
Franschhoek				RSA	Western Cape	Dorp	Station	-33.9063888888889	19.1155555555556
Franschhoek				RSA	Western Cape	Dorp	Urban Area	-33.9091666666667	19.1194444444444
Fraserburg				RSA	Northern Cape	Dorp	Urban Area	-31.9061111111111	21.5119444444444
Frederikstad				RSA	North West	Gebied-Dorp	Station	-26.5088888888889	27.1452777777778
Freedom Park				RSA	North West	Dorp	Urban Area	-25.5669444444444	27.2469444444444
Freedom Park				RSA	North West	Dorp	Urban Area	-25.57	27.2533333333333
Freedom Park				RSA	North West	Dorp	Township	-25.57	27.253333
Frere				RSA	KwaZulu-Natal	Dorp	Station	-28.8927777777778	29.7722222222222
Frere				RSA	KwaZulu-Natal	Dorp	Town	-28.8922222222222	29.7747222222222
Fresnaye				RSA	Western Cape	Voorstad	Urban Area	-33.9227777777778	18.3913888888889
Fynnland				RSA	KwaZulu-Natal	Voorstad	Town	-29.9044444444444	31.0316666666667
Fynnland				RSA	KwaZulu-Natal	Voorstad	Station	-29.8952777777778	31.0272222222222
Ga-Makgato				RSA	Limpopo	Dorp	Township	-22.925	29.033333
Ga-Mmamadi				RSA	Limpopo	Dorp	Settlement	-22.847456	28.826732
Ga-Morwe	Kameelrivier B			RSA	Limpopo	Nedersetting	Settlement	-25.18	28.92
Ga-Nala				RSA	Mpumalanga	Nedersetting	Settlement	-26.4167	29.4
Ga-Rankuwa				RSA	Gauteng	Gebied-Dorp	Station	-25.6191666666667	27.9927777777778
Ga-Rankuwa				RSA	Gauteng	Gebied-Dorp	Urban Area	-25.5711111111111	27.9922222222222
Ga-Rankuwa				RSA	Gauteng	Gebied-Dorp	Town	-25.6041666666667	28.0052777777778
Ga-Seane				RSA	North West	Dorp	Group of huts	-25.195	25.8344444444444
Ga-Seane				RSA	North West	Dorp	Town	-25.4591666666667	25.8691666666667
Ga-Seane				RSA	North West	Dorp	Town	-25.3069444444444	25.8108333333333
Ga-Seane				RSA	North West	Dorp	Settlement	-25.279328	25.793701
GaKobe	Blackhill			RSA	Eastern Cape	Dorp	Settlement	-31.683333	28.216667
Galjoenbaai				RSA	Northern Cape	Baai	Bay	-30.8130555555556	17.5555555555556
Gamoep				RSA	Northern Cape	Nedersetting	Settlement	-29.9083333333333	18.4180555555556
Gansbaai				RSA	Western Cape	Baai	Urban Area	-34.5827777777778	19.3522222222222
Gansbaai				RSA	Western Cape	Baai	Bay	-34.5847222222222	19.3455555555556
Ganspan				RSA	Northern Cape	Nedersetting	Water	-27.9358333333333	24.7688888888889
Ganspan				RSA	Free State	Nedersetting	Non_Perennial	-27.9272222222222	26.4305555555556
Ganspan				RSA	Free State	Nedersetting	Non_Perennial	-29.9483333333333	26.4102777777778
Ganyesa				RSA	North West	Dorp	Non Perennial	-26.5575	24.1438888888889
Ganyesa				RSA	North West	Dorp	Town	-26.5908333333333	24.1594444444444
Ganyesa				RSA	North West	Dorp	Area	-26.5658333333333	24.2963888888889
Gardens				RSA	Western Cape	Voorstad	Urban Area	-33.9327777777778	18.4097222222222
Garies				RSA	Northern Cape	Dorp	Urban Area	-30.5586111111111	17.9913888888889
Garsfontein				RSA	Gauteng	Voorstad	Town	-25.7944444444444	28.3
Gately				RSA	Eastern Cape	Voorstad		-33.03	27.8827777777778
Geduld				RSA	Gauteng	Voorstad	Station	-26.2030555555556	28.4394444444444
Geduld				RSA	Gauteng	Voorstad	Town	-26.2316666666667	28.4261111111111
Geluksburg				RSA	KwaZulu-Natal	Dorp	Town	-28.5163888888889	29.3522222222222
Gelvandale				RSA	Eastern Cape	Voorstad	Urban Area	-33.9161111111111	25.5516666666667
Genadendal				RSA	Western Cape	Sendingplek	Urban Area	-34.0386111111111	19.5627777777778
George				RSA	Western Cape	Stad	Urban Area	-33.9644444444444	22.4597222222222
George				RSA	Western Cape	Stad	Station	-33.9641666666667	22.4708333333333
Germiston				RSA	Gauteng	Stad	Station	-26.2094444444444	28.1680555555556
Germiston				RSA	Gauteng	Stad	Urban Area	-26.2294444444444	28.1805555555556
Geysdorp				RSA	North West	Dorp	Town	-26.5363888888889	25.3030555555556
Gezina				RSA	Gauteng	Voorstad	Station	-25.7211111111111	28.2058333333333
Gezina				RSA	Gauteng	Voorstad	Town	-25.7177777777778	28.2097222222222
Gillitts				RSA	KwaZulu-Natal	Dorp	Town	-29.7966666666667	30.8011111111111
Gillview				RSA	Gauteng	Voorstad	Town	-26.2638888888889	28.0263888888889
Gingindlovu				RSA	KwaZulu-Natal	Dorp	Town	-29.0280555555556	31.5836111111111
Gingindlovu				RSA	KwaZulu-Natal	Dorp	Station	-29.0294444444444	31.5825
Giyani				RSA	Limpopo	Dorp	Urban Area	-23.3152777777778	30.7255555555556
Glen Ashley				RSA	KwaZulu-Natal	Gebied-Dorp	Town	-29.7602777777778	31.0566666666667
Glencairn				RSA		Baai	Station	-34.1613888888889	18.4313888888889
Glencairn				RSA	Western Cape	Baai	Urban Area	-34.1608333333333	18.4308333333333
Glencoe				RSA	KwaZulu-Natal	Dorp	Urban Area	-28.1738888888889	30.1647222222222
Glencoe				RSA	KwaZulu-Natal	Dorp	Station	-28.1719444444444	30.1555555555556
Glenwood				RSA	KwaZulu-Natal	Voorstad	Town	-29.5897222222222	30.4391666666667
Glenwood				RSA	KwaZulu-Natal	Voorstad	Town	-29.8638888888889	30.9877777777778
Glenwood				RSA	Western Cape	Voorstad	Area	-33.9722222222222	22.5111111111111
Go-Nkwe				RSA	North West	Dorp	Settlement	-25.311807	25.802233
Goesa		Bewoon?		RSA	Eastern Cape	Plek	Bush Area	-33.9902777777778	23.8833333333333
Golden Valley				RSA	Gauteng	Dorp	Valley	-26.0155555555556	27.5122222222222
Golden Valley				RSA	Eastern Cape	Dorp	Area	-31.8616666666667	26.2258333333333
Golden Valley				RSA	Eastern Cape	Dorp	Valley	-31.9019444444444	26.2891666666667
Golden Valley				RSA	Eastern Cape	Dorp	Station	-32.8105555555556	25.7894444444444
Golden Valley				RSA	Eastern Cape	Dorp	Town	-32.8102777777778	25.7958333333333
Golden Valley				RSA	Eastern Cape	Dorp	Area	-32.8780555555556	27.4936111111111
Golela				RSA	KwaZulu-Natal	Dorp	Station	-27.3191666666667	31.8908333333333
Golela				RSA	KwaZulu-Natal	Dorp	Town	-27.3183333333333	31.8913888888889
Gondeni				RSA	Limpopo	Dorp	Town	-22.9172222222222	30.4386111111111
Gondeni				RSA	Limpopo	Dorp	Settlement	-22.6555556	30.8430556
Gonubie				RSA	Eastern Cape	Dorp	Town	-32.9436111111111	28.0136111111111
Goodwood				RSA	North West	Dorp	Group of huts	-26.4538888888889	24.2644444444444
Goodwood				RSA	Western Cape	Dorp	Urban Area	-33.9066666666667	18.5491666666667
Goodwood				RSA	Western Cape	Dorp	Station	-33.9141666666667	18.5480555555556
Gouda				RSA	Western Cape	Dorp	Station	-33.3016666666667	19.0416666666667
Gouda				RSA	Western Cape	Dorp	Urban Area	-33.3002777777778	19.0238888888889
Gouritsmond				RSA	Western Cape	Dorp	Urban Area	-34.3497222222222	21.8786111111111
Graaff-Reinet				RSA	Eastern Cape	Dorp	Town	-32.2402777777778	24.5358333333333
Graaff-Reinet				RSA	Eastern Cape	Dorp	Station	-32.2608333333333	24.5422222222222
Graafwater				RSA	Western Cape	Dorp	Urban Area	-32.1502777777778	18.605
Graafwater				RSA	Western Cape	Dorp	Station	-32.1513888888889	18.6066666666667
Grabouw				RSA	Western Cape	Dorp	Urban Area	-34.1530555555556	19.0138888888889
Graslaagte				RSA	Eastern Cape	Plek	Non Perennial	-33.7655555555556	24.415
Graslaagte				RSA	Eastern Cape	Plek	Town	-34.025	24.7502777777778
Green Valley				RSA	Mpumalanga	Nedersetting	Town	-24.5980555555556	31.0291666666667
Greenfields				RSA	Gauteng	Gebied-Dorp	Town	-26.3841666666667	28.1272222222222
Greenfields				RSA	Eastern Cape	Gebied-Dorp	Urban Area	-33.0330555555556	27.8602777777778
Greylingstad				RSA	Mpumalanga	Dorp	Station	-26.745	28.7447222222222
Greylingstad				RSA	Mpumalanga	Dorp	Town	-26.7455555555556	28.7463888888889
Greymont				RSA	Gauteng	Voorstad	Town	-26.1641666666667	27.9672222222222
Greyton				RSA	Western Cape	Dorp	Urban Area	-34.0527777777778	19.6072222222222
Greytown				RSA	KwaZulu-Natal	Dorp	Urban Area	-29.0605555555556	30.5888888888889
Greytown				RSA	KwaZulu-Natal	Dorp	Station	-29.0638888888889	30.5938888888889
Griekwastad				RSA	Northern Cape	Dorp	Urban Area	-28.8513888888889	23.2527777777778
Groblersdal				RSA	Limpopo	Dorp	Town	-25.1675	29.3927777777778
Groenkloof				RSA	Western Cape	Voorstad	Kloof	-33.6416666666667	21.5775
Groenkloof				RSA	Western Cape	Voorstad	Kloof	-33.8516666666667	22.7033333333333
Groenkloof				RSA	Eastern Cape	Voorstad	Kloof	-33.8030555555556	23.9905555555556
Groenkloof				RSA	Western Cape	Voorstad	Kloof	-34.6380555555556	19.5719444444444
Groenkloof				RSA	Western Cape	Voorstad	Kloof	-34.095	20.0155555555556
Groenkloof				RSA	Western Cape	Voorstad	Kloof	-34.3416666666667	21.3272222222222
Groenkloof				RSA	Western Cape	Voorstad	Kloof	-34.3758333333333	21.6583333333333
Groenkloof				RSA	Gauteng	Voorstad	Town	-25.7752777777778	28.2183333333333
Groenkloof				RSA	Northern Cape	Voorstad	Kloof	-28.5111111111111	16.9688888888889
Groenkloof				RSA	Northern Cape	Voorstad	Kloof	-30.3497222222222	18.1177777777778
Groenkloof				RSA	Western Cape	Voorstad	Kloof	-31.8322222222222	18.5747222222222
Groenkloof				RSA	Western Cape	Voorstad	Kloof	-32.8408333333333	18.7572222222222
Groenkloof				RSA	Western Cape	Voorstad	Kloof	-32.7025	19.0105555555556
Groenkloof				RSA	Western Cape	Voorstad	Kloof	-33.0783333333333	19.4663888888889
Groenkloof				RSA	Western Cape	Voorstad	Kloof	-33.3713888888889	19.4905555555556
Groenkloof				RSA	Western Cape	Voorstad	Kloof	-33.4241666666667	19.6736111111111
Groenkloof				RSA	Western Cape	Voorstad	Kloof	-33.5841666666667	19.5811111111111
Groenkloof				RSA	Western Cape	Voorstad	Kloof	-33.3733333333333	20.5258333333333
Groenpunt				RSA	Free State	Voorstad	Town	-26.8261111111111	28.04
Groenpunt				RSA	Western Cape	Voorstad	Kop	-30.8936111111111	18.3277777777778
Groenpunt				RSA	Eastern Cape	Voorstad	Kop	-31.3352777777778	25.9827777777778
Groot-Brakrivier				RSA	Eastern Cape	Dorp	Non Perennial	-31.2675	25.4461111111111
Groot-Brakrivier				RSA	Eastern Cape	Dorp	Mouth	-31.7172222222222	25.4669444444444
Groot-Brakrivier				RSA	Eastern Cape	Dorp	Mouth	-31.9011111111111	25.4438888888889
Groot-Brakrivier				RSA	Western Cape	Dorp	Station	-34.0491666666667	22.2372222222222
Groot-Brakrivier				RSA	Western Cape	Dorp	Mouth	-34.0555555555556	22.2402777777778
Groot-Brakrivier				RSA	Western Cape	Dorp	Urban Area	-34.0425	22.2313888888889
Groot-Marico				RSA	North West	Dorp	Town	-25.5952777777778	26.4169444444444
Grootdraai				RSA	Limpopo	Dorp	Town	-23.1158333333333	28.7116666666667
Grootdraai				RSA	Mpumalanga	Dorp	Area	-25.6055555555556	29.1880555555556
Grootdraai				RSA	Western Cape	Dorp	Road	-33.9458333333333	23.0536111111111
Grootdraai				RSA	Eastern Cape	Dorp	Area	-33.0783333333333	26.8447222222222
Grootdraai				RSA	Western Cape	Dorp	Area	-34.4733333333333	20.3947222222222
Grootfontein				NAM	Northern Cape	Dorp	Area	-30.4008333333333	17.8711111111111
Grootfontein				NAM	Eastern Cape	Dorp	Kloof	-33.0483333333333	26.5572222222222
Grootmis				RSA	Northern Cape	Nedersetting	Town	-29.6505555555556	17.0841666666667
Grootmis				RSA	Eastern Cape	Nedersetting	Kop	-32.9527777777778	25.2258333333333
Grootvlei				RSA	Gauteng	Dorp	Marsh Vlei	-25.9161111111111	28.3686111111111
Grootvlei				RSA	Mpumalanga	Dorp	Town	-26.7597222222222	28.4841666666667
Grootvlei				RSA	Mpumalanga	Dorp	Station	-26.7891666666667	28.5144444444444
Grootvlei				RSA	Free State	Dorp	Marsh Vlei	-27.3055555555556	27.3327777777778
Grootvlei				RSA	Mpumalanga	Dorp	Non_Perennial	-27.0327777777778	29.5669444444444
Grootvlei				RSA	Northern Cape	Dorp	Area	-29.8652777777778	17.5841666666667
Grootvlei				RSA	Free State	Dorp	Area	-29.1944444444444	26.2702777777778
Grootvlei				RSA	Northern Cape	Dorp	Marsh Vlei	-30.2080555555556	17.7816666666667
Grootvlei				RSA	Northern Cape	Dorp	Dry	-30.1655555555556	18.5719444444444
Grootvlei				RSA	Northern Cape	Dorp	Marsh Vlei	-31.3177777777778	19.0252777777778
Grootvlei				RSA	Northern Cape	Dorp	Area	-31.4447222222222	22.4647222222222
Grootvlei				RSA	Western Cape	Dorp	Non_Perennial	-32.7744444444444	19.5913888888889
Grootvlei				RSA	Eastern Cape	Dorp	Non_Perennial	-33.6677777777778	25.3558333333333
Grootvlei				RSA	Western Cape	Dorp	Lake	-34.3608333333333	18.8866666666667
Grootvlei				RSA	Western Cape	Dorp	Marsh Vlei	-34.1116666666667	19.8569444444444
Grootvlei				RSA	Western Cape	Dorp	Marsh Vlei	-34.5733333333333	19.3922222222222
Grootvlei				RSA	Western Cape	Dorp	Perennial	-34.0241666666667	21.3966666666667
Grootvlei				RSA	Western Cape	Dorp	Non_Perennial	-34.1138888888889	21.4269444444444
Groutville				RSA	KwaZulu-Natal	Sendingplek	Town	-29.3894444444444	31.2469444444444
Groutville				RSA	KwaZulu-Natal	Sendingplek	Station	-29.4080555555556	31.2530555555556
Guguletu				RSA	Eastern Cape	Township	Group of huts	-32.1647222222222	26.7222222222222
Guguletu				RSA	Western Cape	Township	Urban Area	-33.9822222222222	18.5683333333333
Gunda				RSA	Limpopo	Dorp	Settlement	-22.705184	30.828545
Gundani				RSA	Limpopo	Dorp	Settlement	-22.6555556	30.6305556
Haaibaai				RSA		Baai	Bay	-34.4333333333333	21.3158333333333
Haarlem				RSA	Western Cape	Dorp	Town	-33.7338888888889	23.3386111111111
Hackney				RSA	Eastern Cape	Nedersetting	Town	-32.3155555555556	26.6483333333333
Haddon				RSA	Gauteng	Voorstad	Town	-26.2588888888889	28.0341666666667
Haenertsburg				RSA	Limpopo	Dorp	Town	-23.9430555555556	29.9405555555556
Hamatidza				RSA	Limpopo	Dorp	Settlement	-22.8754	30.066517
Hamberg				RSA	Gauteng	Voorstad	Station	-26.1672222222222	27.8947222222222
Hamberg				RSA	Gauteng	Voorstad	Town	-26.1702777777778	27.8902777777778
Hamburg				RSA	KwaZulu-Natal	Dorp	Mountain	-28.3516666666667	29.7997222222222
Hamburg				RSA	Eastern Cape	Dorp	Group of huts	-33.2913888888889	27.4538888888889
Hankey				RSA	Eastern Cape	Dorp	Station	-33.8366666666667	24.8819444444444
Hankey				RSA	Eastern Cape	Dorp	Urban Area	-33.8327777777778	24.8836111111111
Hanover				RSA	Northern Cape	Dorp	Urban Area	-31.0675	24.4436111111111
Harburg				RSA	KwaZulu-Natal	Dorp	Town	-29.4105555555556	30.7369444444444
Harding				RSA	KwaZulu-Natal	Dorp	Station	-30.5797222222222	29.8772222222222
Harding				RSA	KwaZulu-Natal	Dorp	Town	-30.5758333333333	29.8847222222222
Harrismith				RSA	Free State	Dorp	Station	-28.2727777777778	29.1216666666667
Harrismith				RSA	Free State	Dorp	Urban Area	-28.2727777777778	29.1294444444444
Hartbeesfontein				RSA	North West	Dorp	Urban Area	-25.4366666666667	27.4861111111111
Hartbeesfontein				RSA	North West	Dorp	Town	-26.7652777777778	26.4213888888889
Hartbeesfontein				RSA	North West	Dorp	Station	-26.7763888888889	26.4230555555556
Hartbeesfontein				RSA	Western Cape	Dorp	Area	-33.025	22.8833333333333
Hartenbos				RSA	Western Cape	Baai	Station	-34.1283333333333	22.1133333333333
Hartenbos				RSA	Western Cape	Baai	Urban Area	-34.12	22.1075
Hartswater				RSA	Northern Cape	Dorp	Urban Area	-27.7516666666667	24.81
Hartswater				RSA	Northern Cape	Dorp	Station	-27.77	24.7927777777778
Hatfield				RSA	Gauteng	Voorstad	Town	-25.7508333333333	28.2430555555556
Hawston				RSA	Western Cape	Baai	Urban Area	-34.3886111111111	19.1316666666667
Hazelwood				RSA	Gauteng	Voorstad	Town	-25.7763888888889	28.2586111111111
Hazelwood				RSA	KwaZulu-Natal	Voorstad	Town	-30.2955555555556	30.6722222222222
Hazyview				RSA	Mpumalanga	Dorp	Town	-25.0430555555556	31.1280555555556
Hazyview				RSA	Mpumalanga	Dorp	Station	-25.0391666666667	31.2316666666667
Heatonville				RSA	KwaZulu-Natal	Nedersetting	Town	-28.7416666666667	31.7861111111111
Heatonville				RSA	KwaZulu-Natal	Nedersetting	Station	-28.6594444444444	31.7861111111111
Hectorspruit				RSA	Mpumalanga	Dorp	Town	-25.4394444444444	31.6827777777778
Hectorspruit				RSA	Mpumalanga	Dorp	Station	-25.4361111111111	31.6766666666667
Heidelberg				RSA	Gauteng	Dorp	Urban Area	-26.4972222222222	28.3591666666667
Heidelberg				RSA	Gauteng	Dorp	Station	-26.5088888888889	28.3708333333333
Heidelberg				RSA	Eastern Cape	Dorp	Mountain	-32.2688888888889	25.9666666666667
Heidelberg				RSA	Western Cape	Dorp	Urban Area	-34.0927777777778	20.955
Heilbron				RSA	Free State	Dorp	Urban Area	-27.2863888888889	27.9694444444444
Heilbron				RSA	Free State	Dorp	Station	-27.2911111111111	27.9652777777778
Helpmekaar				RSA	KwaZulu-Natal	Dorp	Town	-28.4461111111111	30.4202777777778
Helpmekaar				RSA	Northern Cape	Dorp	Road	-30.445	18.0644444444444
Helpmekaar				RSA	Western Cape	Dorp	Area	-33.2713888888889	20.9127777777778
Hendrina				RSA	Mpumalanga	Dorp	Town	-26.1583333333333	29.7161111111111
Henley on Klip				RSA	Gauteng	Dorp	Town	-26.5352777777778	28.0611111111111
Henley on Klip				RSA	Gauteng	Dorp	Station	-26.5236111111111	28.0405555555556
Hennenman				RSA	Free State	Dorp	Urban Area	-27.9758333333333	27.0213888888889
Hennenman				RSA	Free State	Dorp	Station	-27.975	27.275
Herbertsdale				RSA	Western Cape	Dorp	Urban Area	-34.0152777777778	21.7616666666667
Hercules				RSA	Gauteng	Voorstad	Station	-25.7233333333333	28.1677777777778
Heriotdale				RSA	Gauteng	Voorstad		-26.2125	28.1233333333333
Herlear				RSA	Northern Cape	Voorstad	Urban Area	-28.7475	24.7855555555556
Hermanstad				RSA	Gauteng	Voorstad	Town	-25.7163888888889	28.1616666666667
Hermanus				RSA	Western Cape	Dorp	Urban Area	-34.4175	19.2361111111111
Hermanus				RSA	Western Cape	Dorp	Urban Area	-34.4111111111111	19.2538888888889
Hermon				RSA	Western Cape	Dorp	Station	-33.4377777777778	18.9686111111111
Hermon				RSA	Western Cape	Dorp	Urban Area	-33.4369444444444	18.9680555555556
Herschel				RSA	Eastern Cape	Dorp	Town	-30.6152777777778	27.1627777777778
Hertzog				RSA	Eastern Cape	Dorp	Group of huts	-32.5794444444444	26.7177777777778
Hertzogville				RSA	Free State	Dorp	Town	-28.1266666666667	25.5052777777778
Heuningbos				RSA	Eastern Cape	Plek	Bush Area	-33.9327777777778	23.8036111111111
Heuningbos				RSA	Western Cape	Plek	Other	-34.3691666666667	21.2586111111111
Heuningvlei				RSA	Northern Cape	Nedersetting	Dry	-29.6613888888889	19.3169444444444
Hibberdene				RSA	KwaZulu-Natal	Dorp	Town	-30.5719444444444	30.5736111111111
Hibberdene				RSA	KwaZulu-Natal	Dorp	Station	-30.5747222222222	30.5752777777778
Highlands				RSA	Eastern Cape	Voorstad	Station	-33.3380555555556	26.3172222222222
Hillary				RSA	KwaZulu-Natal	Voorstad	Station	-29.8888888888889	30.9422222222222
Hillary				RSA	KwaZulu-Natal	Voorstad	Town	-29.8833333333333	30.9402777777778
Hillbrow				RSA	Gauteng	Voorstad	Town	-26.1880555555556	28.0483333333333
Hillcrest				RSA	Gauteng	Voorstad	Town	-25.7580555555556	28.2416666666667
Hillcrest				RSA	KwaZulu-Natal	Voorstad	Urban Area	-29.7755555555556	30.7655555555556
Hillcrest				RSA	KwaZulu-Natal	Voorstad	Station	-29.7783333333333	30.7675
Hillcrest				RSA	Eastern Cape	Voorstad	Urban Area	-31.5713888888889	28.7997222222222
Hillcrest				RSA	Eastern Cape	Voorstad	Group of huts	-32.7963888888889	26.8411111111111
Hillcrest				RSA	Western Cape	Voorstad	Urban Area	-33.66	18.9952777777778
Hilton				RSA	Free State	Gebied-Dorp	Urban Area	-29.1019444444444	26.2430555555556
Hilton				RSA	KwaZulu-Natal	Gebied-Dorp	Station	-29.5538888888889	30.3019444444444
Hilton				RSA	KwaZulu-Natal	Gebied-Dorp	Town	-29.5522222222222	30.3016666666667
Hilton				RSA	Eastern Cape	Gebied-Dorp	Town	-30.6977777777778	26.6994444444444
Himeville				RSA	KwaZulu-Natal	Dorp	Town	-29.7461111111111	29.5144444444444
Hlabisa				RSA	KwaZulu-Natal	Dorp	Urban Area	-28.1458333333333	31.8752777777778
Hlanganani				RSA	Limpopo	Dorp	Group of huts	-23.1927777777778	30.2325
Hlatikulu				RSA	KwaZulu-Natal	Dorp	Kop	-29.2330555555556	29.6691666666667
Hlatikulu				RSA	KwaZulu-Natal	Dorp	Mouth	-29.2577777777778	29.8691666666667
Hlatikulu				RSA	Eastern Cape	Dorp	Other	-31.4922222222222	28.9188888888889
Hlatikulu				RSA	Eastern Cape	Dorp	Kop	-32.7569444444444	26.7208333333333
Hlatikulu				RSA	Eastern Cape	Dorp	Non Perennial	-32.8752777777778	27.1663888888889
Hlauhlau				RSA	Mpumalanga	Nedersetting	Town	-25.3561111111111	31.1677777777778
Hlauhlau				RSA	Mpumalanga	Nedersetting	Mouth	-25.3591666666667	31.2769444444444
Hlengesha	Schulzendal			RSA	Mpumalanga	Nedersetting	Settlement	-25.75	31.5166667
Hlomendlini				RSA	Eastern Cape	Nedersetting	Group of huts	-30.5852777777778	27.2780555555556
Hluhluwe				RSA	KwaZulu-Natal	Dorp	Station	-28.0225	32.2802777777778
Hluhluwe				RSA	KwaZulu-Natal	Dorp	Town	-28.0175	32.2691666666667
Hluhluwe				RSA	KwaZulu-Natal	Dorp	Mouth	-28.0425	32.3697222222222
Hluhluwe				RSA	KwaZulu-Natal	Dorp	Perennial	-30.1111111111111	30.7305555555556
Hlutankungu				RSA	KwaZulu-Natal	Nedersetting	Station	-30.2827777777778	30.3113888888889
Hlutankungu				RSA	KwaZulu-Natal	Nedersetting	Area	-30.2744444444444	30.3330555555556
Hobhouse				RSA	Free State	Dorp	Urban Area	-29.53	27.1338888888889
Hoedspruit				RSA	Limpopo	Dorp	Station	-24.3522222222222	30.9563888888889
Hoedspruit				RSA	Limpopo	Dorp	Urban Area	-24.3533333333333	30.9452777777778
Hoedspruit				RSA	North West	Dorp	Non Perennial	-25.6655555555556	27.4444444444444
Hoffenthal				RSA	KwaZulu-Natal	Sendingplek	Area	-28.79	29.2794444444444
Hofmeyr				RSA	Eastern Cape	Dorp	Station	-31.6572222222222	25.7997222222222
Hofmeyr				RSA	Eastern Cape	Dorp	Town	-31.6522222222222	25.8041666666667
Hogsback				RSA	KwaZulu-Natal	Dorp	Kop	-29.5461111111111	30.3455555555556
Hogsback				RSA	Eastern Cape	Dorp	Area	-32.6027777777778	26.9419444444444
Homestead Park				RSA	Gauteng	Voorstad	Town	-26.2022222222222	27.9969444444444
Hondeklipbaai				RSA	Northern Cape	Baai	Town	-30.3163888888889	17.2772222222222
Hondeklipbaai				RSA		Baai	Bay	-30.3155555555556	17.2736111111111
Hoopstad				RSA	Free State	Dorp	Town	-27.8316666666667	25.9197222222222
Hopefield				RSA	Gauteng	Dorp	Town	-26.4183333333333	27.8186111111111
Hopefield				RSA	Western Cape	Dorp	Urban Area	-33.0655555555556	18.3508333333333
Hopefield				RSA	Western Cape	Dorp	Station	-33.0644444444444	18.3527777777778
Hopetown				RSA	Northern Cape	Dorp	Urban Area	-29.6230555555556	24.0833333333333
Horees				RSA	Northern Cape	Plek	Area	-29.4052777777778	17.5702777777778
Horseshoe				RSA	Mpumalanga	Voorstad	Railway	-25.6397222222222	30.3797222222222
Horseshoe				RSA	Eastern Cape	Voorstad	Station	-32.9655555555556	27.8447222222222
Horseshoe				RSA	Eastern Cape	Voorstad	Area	-33.6769444444444	25.8363888888889
Horseshoe				RSA	Eastern Cape	Voorstad	Area	-33.5358333333333	26.8019444444444
Hotazel				RSA	Northern Cape	Dorp	Station	-27.2216666666667	22.9666666666667
Houghton Estate				RSA	Gauteng	Voorstad	Town	-26.1583333333333	28.0572222222222
Houtbaai				RSA		Baai	Harbour	-34.0541666666667	18.3488888888889
Houtbaai				RSA		Baai	Urban Area	-34.0583333333333	18.3461111111111
Houtbaai				RSA		Baai	Bay	-34.0586111111111	18.355
Houtbosdorp				RSA	Limpopo	Dorp	Town	-23.8147222222222	29.8997222222222
Huguenot				RSA	Western Cape	Gebied-Dorp	Station	-33.73	18.9772222222222
Huguenot				RSA	Western Cape	Gebied-Dorp	Urban Area	-33.7286111111111	18.9802777777778
Humansdorp				RSA	Eastern Cape	Dorp	Urban Area	-34.0227777777778	24.745
Humansdorp				RSA	Eastern Cape	Dorp	Station	-34.0241666666667	24.7691666666667
Humewood				RSA	Eastern Cape	Voorstad	Urban Area	-33.9777777777778	25.6413888888889
Huntingdon				RSA	Mpumalanga	Gebied-Dorp	Group of huts	-24.9177777777778	31.4133333333333
Hurlingham				RSA	Gauteng	Voorstad	Town	-26.1022222222222	28.0277777777778
Hutchinson				RSA	Northern Cape	Dorp	Station	-31.4975	23.1891666666667
Hyde Park				RSA	Gauteng	Voorstad	Urban Area	-26.1197222222222	28.0397222222222
Hyde Park				RSA	KwaZulu-Natal	Voorstad	Town	-28.5325	29.7877777777778
Ikageleng				RSA	North West	Gebied-Dorp	Town	-25.4958333333333	25.9291666666667
Ikageleng				RSA	North West	Gebied-Dorp	Urban Area	-25.5622222222222	26.1005555555556
Ikageng				RSA	North West	Gebied-Dorp	Town	-26.7169444444444	27.055
Ikhutseng				RSA	Northern Cape	Gebied-Dorp	Urban Area	-28.1233333333333	24.8544444444444
Illovo				RSA	Gauteng	Voorstad	Urban Area	-26.1227777777778	28.0552777777778
Illovo Beach				RSA	KwaZulu-Natal	Dorp	Town	-30.1158333333333	30.8494444444444
Illovo Beach				RSA	KwaZulu-Natal	Dorp	Station	-30.1175	30.8505555555556
iMbali				RSA	KwaZulu-Natal	Gebied-Dorp	Town	-29.6588888888889	30.3472222222222
Impalapark				RSA	Gauteng	Gebied-Dorp	Town	-26.1611111111111	28.2666666666667
Impendle				RSA	KwaZulu-Natal	Dorp	Town	-29.5991666666667	29.8669444444444
Impumelelo				RSA	Gauteng	Township	Town	-26.3463888888889	28.7708333333333
Imvani				RSA	Eastern Cape	Nedersetting	Station	-32.0313888888889	27.0594444444444
Imvani				RSA	Eastern Cape	Nedersetting	Town	-32.0319444444444	27.0772222222222
Inanda				RSA	Gauteng	Plek	Urban Area	-26.1186111111111	28.0591666666667
Inanda				RSA	KwaZulu-Natal	Plek	Urban Area	-29.715	30.95
Inanda				RSA	KwaZulu-Natal	Plek	Group of huts	-29.7413888888889	30.7738888888889
Inchanga				RSA	KwaZulu-Natal	Dorp	Town	-29.7375	30.6641666666667
Inchanga				RSA	KwaZulu-Natal	Dorp	Group of huts	-29.7113888888889	30.665
Inchanga				RSA	KwaZulu-Natal	Dorp	Station	-29.7416666666667	30.6644444444444
Inchanga Park				RSA	KwaZulu-Natal	Dorp	Town	-29.7308333333333	30.6430555555556
Indwe				RSA	Eastern Cape	Dorp	Urban Area	-31.4677777777778	27.3386111111111
Indwe				RSA	Eastern Cape	Dorp	Station	-31.4672222222222	27.3430555555556
Indwe				RSA	Eastern Cape	Dorp	Mouth	-31.9916666666667	27.3538888888889
Ingogo				RSA	KwaZulu-Natal	Nedersetting	Station	-27.5991666666667	29.8558333333333
Ingwavuma				RSA	KwaZulu-Natal	Dorp	Town	-27.1336111111111	31.9966666666667
Intongana				RSA	Eastern Cape	Nedersetting	Other	-31.4577777777778	28.6144444444444
Ipopeng				RSA	Free State	Gebied-Dorp	Group of huts	-29.7369444444444	25.3144444444444
Ireagh				RSA	Mpumalanga	Nedersetting	Station	-24.8666666666667	31.3033333333333
Ireagh				RSA	Mpumalanga	Nedersetting	Town	-24.835	31.3119444444444
Irene				RSA	Gauteng	Gebied-Dorp	Town	-25.8683333333333	28.2177777777778
Irene				RSA	Gauteng	Gebied-Dorp	Station	-25.8752777777778	28.2247222222222
Irene Estate				RSA	Gauteng	Gebied-Dorp	Township	-25.8333333333333	28.2333333333333
Isinuka		Kry slegs Isinuka in korpusse/Google		RSA	Eastern Cape	Plek	Bush Area	-31.6116666666667	29.4866666666667
Isipingo Beach				RSA	KwaZulu-Natal	Dorp	Town	-29.9941666666667	30.9461111111111
Isisekelo				RSA	Gauteng	Dorp	Town	-26.0166667	28.2333333
Island View				RSA	KwaZulu-Natal	Voorstad	Station	-29.8922222222222	31.0377777777778
Island View				RSA	KwaZulu-Natal	Voorstad	Town	-29.8902777777778	31.0375
Iswepe				RSA	Mpumalanga	Dorp	Station	-26.8427777777778	30.5238888888889
Iswepe				RSA	Mpumalanga	Dorp	Town	-26.8427777777778	30.5252777777778
Itshehlope				RSA	KwaZulu-Natal	Nedersetting	Kop	-30.0583333333333	30.7858333333333
Itsoseng				RSA	Gauteng	Gebied-Dorp	Group of huts	-25.5588888888889	28.0566666666667
Itsoseng				RSA	North West	Gebied-Dorp	Town	-26.0805555555556	25.8880555555556
Itumeleng				RSA	Gauteng	Gebied-Dorp	Group of huts	-25.5633333333333	28.0658333333333
Itumeleng				RSA	Free State	Gebied-Dorp	Group of huts	-29.7688888888889	25.4383333333333
Ivory Park				RSA	Gauteng	Gebied-Dorp	Town	-25.9875	28.2038888888889
Izingolweni				RSA	KwaZulu-Natal	Dorp	Station	-30.7838888888889	30.1244444444444
Izingolweni				RSA	KwaZulu-Natal	Dorp	Area	-30.7791666666667	30.1255555555556
iZotsha				RSA	KwaZulu-Natal	Nedersetting	Station	-30.78	30.3922222222222
Jabavu				RSA	Gauteng	Voorstad	Town	-26.2466666666667	27.8736111111111
Jabavu				RSA	KwaZulu-Natal	Voorstad	Group of huts	-28.2727777777778	30.5330555555556
Jabavu				RSA	Eastern Cape	Voorstad	Town	-30.2452777777778	28.7683333333333
Jacobs				RSA	KwaZulu-Natal	Voorstad	Town	-29.9263888888889	30.9866666666667
Jacobs				RSA	KwaZulu-Natal	Voorstad	Station	-29.9236111111111	30.9869444444444
Jacobsdal				RSA	Free State	Dorp	Urban Area	-29.1255555555556	24.7744444444444
Jagersfontein				RSA	Free State	Dorp	Town	-29.7605555555556	25.4283333333333
Jagersfontein				RSA	Free State	Dorp	Station	-29.7877777777778	25.4233333333333
Jakkalsdraai				RSA	North West	Dorp	Group of huts	-26.6958333333333	24.0397222222222
Jakkalsdraai				RSA	Northern Cape	Dorp	Area	-30.8175	18.1777777777778
Jamestown				RSA	Eastern Cape	Dorp	Urban Area	-31.1213888888889	26.8072222222222
Jamestown				RSA	Eastern Cape	Dorp	Station	-31.1227777777778	26.8002777777778
Jamestown				RSA	Western Cape	Dorp	Town	-33.9791666666667	18.8491666666667
Jan Kempdorp				RSA	Northern Cape	Dorp	Urban Area	-27.9222222222222	24.8494444444444
Jan Kempdorp				RSA	Northern Cape	Dorp	Station	-27.9069444444444	24.8230555555556
Jansenville				RSA	Eastern Cape	Dorp	Urban Area	-32.9433333333333	24.6708333333333
Jeppestown				RSA	Gauteng	Voorstad	Town	-26.2022222222222	28.0708333333333
Johannesburg				RSA	Gauteng	Stad	Station	-26.1972222222222	27.9794444444444
Johannesburg				RSA	Gauteng	Stad	Urban Area	-26.205	28.0497222222222
Joubertina				RSA	Eastern Cape	Dorp	Urban Area	-33.825	23.8577777777778
Joubertina				RSA	Eastern Cape	Dorp	Station	-33.8266666666667	23.8544444444444
Jozini				RSA	KwaZulu-Natal	Dorp	Town	-27.4302777777778	32.0669444444444
Judith's Paarl				RSA	Gauteng	Voorstad	Town	-26.1919444444444	28.0761111111111
Kaalfontein				RSA	Gauteng	Dorp	Non Perennial	-26.0305555555556	28.2119444444444
Kaalfontein				RSA	Gauteng	Dorp	Station	-26.0355555555556	28.2547222222222
Kaalfontein				RSA	Eastern Cape	Dorp	Group of huts	-31.4388888888889	27.1944444444444
Kaapmuiden				RSA	Mpumalanga	Dorp	Station	-25.5319444444444	31.3319444444444
Kaapmuiden				RSA	Mpumalanga	Dorp	Town	-25.5327777777778	31.3338888888889
Kaapsehoop				RSA	Mpumalanga	Dorp	Town	-25.59	30.7672222222222
Kaapstad				RSA	Western Cape	Stad	Urban Area	-33.9288888888889	18.4172222222222
Kaapstad				RSA	Western Cape	Stad	Station	-33.9222222222222	18.4269444444444
Kadobi	Ka-madobi			RSA	Mpumalanga	Nedersetting	Settlement	-23.1833333	30.3833333
Kagiso				RSA	North West	Gebied-Dorp	Urban Area	-25.3544444444444	27.0786111111111
Kagiso				RSA	North West	Gebied-Dorp	Group of huts	-26.2641666666667	23.4925
Kagiso				RSA	Gauteng	Gebied-Dorp	Town	-26.1577777777778	27.7813888888889
Kakamas				RSA	Northern Cape	Dorp	Urban Area	-28.7730555555556	20.615
Kalbaskraal				RSA	Western Cape	Dorp	Urban Area	-33.5725	18.6483333333333
Kalbaskraal				RSA	Western Cape	Dorp	Station	-33.5713888888889	18.6486111111111
Kalinyanga				RSA	Eastern Cape	Nedersetting	Group of huts	-31.6858333333333	28.0522222222222
Kalkbaai				RSA		Dorp	Harbour	-34.1269444444444	18.45
Kalkbaai				RSA		Dorp	Urban Area	-34.1291666666667	18.4505555555556
Kalomantasha				RSA	Mpumalanga	Nedersetting	Settlement	-25.954564	31.815501
Kamakhatheni	Kabhunya			RSA	Mpumalanga	Nedersetting	Settlement	-25.851545	31.831011
Kamasheshane	New-Village			RSA	Mpumalanga	Nedersetting	Settlement	-25.899485	31.932155
Kamieskroon				RSA	Northern Cape	Dorp	Town	-30.2088888888889	17.9355555555556
Kammiebos				RSA	Eastern Cape	Nedersetting	Station	-33.9016666666667	24.1361111111111
Kampsbaai				RSA	Western Cape	Voorstad	Bay	-34.4552777777778	20.7394444444444
Kana				RSA	North West	Gebied-Dorp	Town	-25.5763888888889	27.3013888888889
Kap-Kap				RSA	Northern Cape	Nedersetting	Area	-30.2486111111111	18.4416666666667
Kareedouw				RSA	Eastern Cape	Dorp	Urban Area	-33.9516666666667	24.2908333333333
Kariega		Voorheen Uitenhage		RSA	Eastern Cape	Dorp	Station	-33.4352777777778	25.27
Karridene				RSA	KwaZulu-Natal	Baai	Station	-30.1272222222222	30.8461111111111
Karridene				RSA	KwaZulu-Natal	Baai	Town	-30.1247222222222	30.8463888888889
Kasibhejane				RSA	Mpumalanga	Nedersetting	Settlement	-25.651545	31.798857
Kasouga				RSA	Eastern Cape	Nedersetting	Town	-33.6475	26.7361111111111
Katjibane				RSA	Mpumalanga	Dorp	Post Office	-25.0166667	28.6333333
Katkop		Nou Ngqayi		RSA	Free State	Dorp	Kop	-27.4183333333333	28.1291666666667
Katkop		Nou Ngqayi		RSA	Northern Cape	Dorp	Kop	-28.8652777777778	16.9813888888889
Katkop		Nou Ngqayi		RSA	Northern Cape	Dorp	Kop	-29.2663888888889	17.9436111111111
Katkop		Nou Ngqayi		RSA	Northern Cape	Dorp	Kop	-29.3247222222222	18.0577777777778
Katkop		Nou Ngqayi		RSA	Northern Cape	Dorp	Kop	-29.1727777777778	18.7030555555556
Katkop		Nou Ngqayi		RSA	Northern Cape	Dorp	Kop	-29.7402777777778	20.6402777777778
Katkop		Nou Ngqayi		RSA	Northern Cape	Dorp	Kop	-30.5980555555556	17.9752777777778
Katkop		Nou Ngqayi		RSA	Western Cape	Dorp	Kop	-30.8613888888889	18.6491666666667
Katkop		Nou Ngqayi		RSA	Northern Cape	Dorp	Kop	-30.6233333333333	22.6166666666667
Katkop		Nou Ngqayi		RSA	Northern Cape	Dorp	Kop	-30.855	23.4283333333333
Katkop		Nou Ngqayi		RSA	Eastern Cape	Dorp	Kop	-30.8819444444444	28.5072222222222
Katkop		Nou Ngqayi		RSA	Western Cape	Dorp	Kop	-31.795	18.8969444444444
Katkop		Nou Ngqayi		RSA	Northern Cape	Dorp	Kop	-31.3469444444444	20.5613888888889
Katkop		Nou Ngqayi		RSA	Northern Cape	Dorp	Kop	-31.1597222222222	23.8366666666667
Katkop		Nou Ngqayi		RSA	Northern Cape	Dorp	Kop	-31.6941666666667	23.7566666666667
Katkop		Nou Ngqayi		RSA	Eastern Cape	Dorp	Kop	-31.9319444444444	25.4530555555556
Katkop		Nou Ngqayi		RSA	Western Cape	Dorp	Kop	-33.3813888888889	18.4525
Katkop		Nou Ngqayi		RSA	Western Cape	Dorp	Kop	-33.4388888888889	20.0102777777778
Katkop		Nou Ngqayi		RSA	Western Cape	Dorp	Kop	-33.7275	20.8661111111111
Katlehong				RSA	Gauteng	Gebied-Dorp	Station	-26.3072222222222	28.1616666666667
Katlehong				RSA	Gauteng	Gebied-Dorp	Urban Area	-26.3386111111111	28.1511111111111
Kazibokwane				RSA	Mpumalanga	Nedersetting	Settlement	-25.669175	31.8
Keidebees				RSA	Northern Cape	Nedersetting	Area	-28.4413888888889	21.2922222222222
Keimoes				RSA	Northern Cape	Dorp	Urban Area	-28.6983333333333	20.9588888888889
Keimoes				RSA	Northern Cape	Dorp	Station	-28.7047222222222	20.97
Keiskammahoek				RSA	Eastern Cape	Dorp	Town	-32.6816666666667	27.1513888888889
Kelvin				RSA	Gauteng	Voorstad	Urban Area	-26.075	28.0947222222222
Kempton Park				RSA	Gauteng	Stad	Urban Area	-26.0963888888889	28.2336111111111
Kempton Park				RSA	Gauteng	Stad	Station	-26.1080555555556	28.2277777777778
Kenhardt				RSA	Northern Cape	Dorp	Urban Area	-29.3494444444444	21.1555555555556
Kenhardt				RSA	Northern Cape	Dorp	Station	-29.3005555555556	21.0477777777778
Kenilworth				RSA	Gauteng	Voorstad	Town	-26.2461111111111	28.0488888888889
Kenilworth				RSA	Northern Cape	Voorstad	Urban Area	-28.7080555555556	24.7875
Kenilworth				RSA	Free State	Voorstad	Area	-29.0230555555556	26.15
Kenilworth				RSA	Western Cape	Voorstad	Station	-33.9947222222222	18.4736111111111
Kenilworth				RSA	Western Cape	Voorstad	Urban Area	-33.9941666666667	18.4683333333333
Kensington				RSA	Gauteng	Voorstad	Town	-26.1961111111111	28.0969444444444
Kensington				RSA	Eastern Cape	Voorstad	Group of huts	-32.1963888888889	27.6794444444444
Kensington				RSA	Western Cape	Voorstad	Urban Area	-33.9144444444444	18.5069444444444
Kestell				RSA	Free State	Dorp	Town	-28.3119444444444	28.7033333333333
Keurboomstrand				RSA	Western Cape	Dorp	Urban Area	-34.0019444444444	23.4572222222222
Keurboomstrand				RSA	Western Cape	Dorp	Sandy Area	-34.0058333333333	23.4475
Kew				RSA	Gauteng	Voorstad	Town	-26.1202777777778	28.0966666666667
Kgokgole				RSA	North West	Dorp	Group of huts	-26.7130555555556	23.935
Kgokgole				RSA	North West	Dorp	Post Office	-26.7166667	23.9333333
Kgopeng				RSA	Limpopo	Nedersetting	Group of huts	-23.7144444444444	28.7147222222222
Kgopeng				RSA	Limpopo	Nedersetting	Kop	-23.6980555555556	28.7316666666667
Kgopeng				RSA	Limpopo	Nedersetting	Area	-23.705	28.7644444444444
Kgotsong				RSA	Free State	Gebied-Dorp	Urban Area	-27.3836111111111	26.6525
Khakhu				RSA	Limpopo	Dorp	Settlement	-22.8388889	30.2416667
Khambi	Kambi			RSA	Eastern Cape	Dorp	Beach	-31.4833333	28.65
Kharwastan				RSA	KwaZulu-Natal	Gebied-Dorp	Town	-29.8983333333333	30.9030555555556
Khayamnandi				RSA	Eastern Cape	Gebied-Dorp	Group of huts	-32.8319444444444	26.8
Khayelitsha				RSA	Eastern Cape	Gebied-Stedelik	Group of huts	-32.7058333333333	27.4738888888889
Khayelitsha				RSA	Eastern Cape	Gebied-Stedelik	Group of huts	-33.1544444444444	27.5255555555556
Khayelitsha				RSA	Western Cape	Gebied-Stedelik	Urban Area	-34.0377777777778	18.6619444444444
Kheis				RSA	Northern Cape	Nedersetting	Area	-30.4572222222222	17.9972222222222
Khubus				RSA	Northern Cape	Dorp	Group of huts	-28.4619444444444	17.0191666666667
Khutsong				RSA	Mpumalanga	Gebied-Dorp	Urban Area	-24.6166666666667	30.7613888888889
Khutsong				RSA	North West	Gebied-Dorp	Town	-26.3236111111111	27.3205555555556
Kidd's Beach				RSA	Eastern Cape	Dorp	Town	-33.1511111111111	27.6994444444444
Kiepersol				RSA	Mpumalanga	Nedersetting	Group of huts	-25.0611111111111	31.0444444444444
Kildare				RSA	Mpumalanga	Gebied-Stedelik	Town	-24.8802777777778	31.3208333333333
Kilfenora				RSA	Gauteng	Voorstad	Town	-26.1888888888889	28.2905555555556
Killarney				RSA	Gauteng	Voorstad	Town	-26.1669444444444	28.0505555555556
Killarney				RSA	Western Cape	Voorstad	Area	-33.8305555555556	18.525
Kilner Park				RSA	Gauteng	Voorstad	Town	-25.7152777777778	28.2627777777778
Kimberley				RSA	Northern Cape	Stad	Station	-28.7361111111111	24.7705555555556
Kimberley				RSA	Northern Cape	Stad	Urban Area	-28.7333333333333	24.7655555555556
KinderlÃª				RSA	Northern Cape	Nedersetting	Area	-29.1808333333333	17.7952777777778
King William's Town				RSA	Eastern Cape	Dorp	Urban Area	-32.8797222222222	27.3944444444444
King William's Town				RSA	Eastern Cape	Dorp	Station	-32.8872222222222	27.39
King's Rest				RSA	KwaZulu-Natal	Voorstad	Station	-29.9047222222222	31.0144444444444
Kinross				RSA	Mpumalanga	Dorp	Town	-26.4197222222222	29.1013888888889
Kinross				RSA	Mpumalanga	Dorp	Station	-26.4216666666667	29.0947222222222
Kirkwood				RSA	Eastern Cape	Dorp	Town	-33.3975	25.4441666666667
Kirkwood				RSA	Eastern Cape	Dorp	Station	-33.3988888888889	25.4377777777778
Kiwini				RSA	KwaZulu-Natal	Nedersetting	Perennial	-28.8911111111111	30.7861111111111
Kiwini				RSA	Eastern Cape	Nedersetting	Group of huts	-31.8530555555556	28.6686111111111
Klaarstroom				RSA	Western Cape	Dorp	Urban Area	-33.3288888888889	22.5369444444444
Klaarwater				RSA	KwaZulu-Natal	Gebied-Dorp	Station	-29.8616666666667	30.8602777777778
Klaarwater				RSA	KwaZulu-Natal	Gebied-Dorp	Town	-29.8855555555556	30.8344444444444
Klawer				RSA	Western Cape	Dorp	Urban Area	-31.775	18.6255555555556
Klawer				RSA	Western Cape	Dorp	Station	-31.7747222222222	18.6230555555556
Kleinmond				RSA	Western Cape	Dorp	Urban Area	-34.3388888888889	19.0252777777778
Kleinmond				RSA	Eastern Cape	Dorp	Bay	-34.0658333333333	24.2055555555556
Kleinsee				RSA	Northern Cape	Dorp	Town	-29.6777777777778	17.0708333333333
Kleinsee				RSA	Western Cape	Dorp	Bay	-31.7783333333333	18.2269444444444
Klerksdorp				RSA	North West	Stad		-26.8972222222222	26.6627777777778
Klerksdorp				RSA	North West	Stad	Urban Area	-26.8502777777778	26.6477777777778
Klerksdorp				RSA	North West	Stad	Station	-26.8688888888889	26.6694444444444
Klipdrif				RSA	North West	Gebied-Dorp	Town	-26.6472222222222	27.2480555555556
Klipdrif				RSA	North West	Gebied-Dorp	Station	-26.6488888888889	27.2636111111111
Klipdrif				RSA	North West	Gebied-Dorp	Area	-26.6238888888889	27.2702777777778
Klipplaat				RSA	North West	Dorp	Non Perennial	-25.7344444444444	27.7719444444444
Klipplaat				RSA	Eastern Cape	Dorp	Town	-33.0180555555556	24.3408333333333
Klipplaat				RSA	Eastern Cape	Dorp	Station	-33.0188888888889	24.3377777777778
Kliprand				RSA	Western Cape	Dorp	Town	-30.5927777777778	18.69
Klipriviersberg				RSA	Gauteng	Voorstad	Mountain	-26.2825	28.0455555555556
Kloof				RSA	Gauteng	Dorp	Town	-26.3905555555556	27.6002777777778
Kloof				RSA	KwaZulu-Natal	Dorp	Urban Area	-29.7858333333333	30.8252777777778
Kloof				RSA	KwaZulu-Natal	Dorp	Station	-29.7919444444444	30.8347222222222
Knysna				RSA	Western Cape	Dorp	Station	-34.0402777777778	23.0441666666667
Knysna				RSA	Western Cape	Dorp	Urban Area	-34.0355555555556	23.0488888888889
Kocksoord				RSA	Gauteng	Voorstad	Town	-26.2211111111111	27.6483333333333
Koegasbrug				RSA	Northern Cape	Dorp	Town	-29.3038888888889	22.3597222222222
Koekenaap				RSA	Western Cape	Nedersetting	Town	-31.5230555555556	18.2922222222222
Koekenaap				RSA	Western Cape	Nedersetting	Station	-31.5266666666667	18.2919444444444
Koekenaap				RSA	Western Cape	Nedersetting	Area	-31.5261111111111	18.2702777777778
Koeroebees				RSA	Northern Cape	Nedersetting	Area	-30.1444444444444	17.7086111111111
KoeÃ«lbaai				RSA		Baai	Bay	-33.9730555555556	18.3705555555556
KoeÃ«lbaai				RSA	Western Cape	Baai	Bay	-34.0630555555556	18.3691666666667
KoeÃ«lbaai				RSA		Baai	Bay	-34.2347222222222	18.4791666666667
KoeÃ«lbaai				RSA	Western Cape	Baai	Bay	-34.2394444444444	18.8538888888889
KoeÃ«lbaai				RSA		Baai	Bay	-34.2597222222222	18.8530555555556
Koffiefontein				RSA	Free State	Dorp	Town	-29.4063888888889	25.0041666666667
Koffiefontein				RSA	Free State	Dorp	Station	-29.41	25.0111111111111
Koingnaas				RSA	Northern Cape	Dorp	Town	-30.1972222222222	17.2777777777778
Kokstad				RSA	Limpopo	Dorp	Town	-23.1725	27.9811111111111
Kokstad				RSA	KwaZulu-Natal	Dorp	Town	-30.5475	29.4244444444444
Kokstad				RSA	KwaZulu-Natal	Dorp	Station	-30.56	29.4188888888889
Komaggas				RSA	Northern Cape	Nedersetting	Town	-29.8002777777778	17.4825
Komatipoort				RSA	Mpumalanga	Dorp	Town	-25.4327777777778	31.9558333333333
Komatipoort				RSA	Mpumalanga	Dorp	Station	-25.4372222222222	31.9538888888889
Komga				RSA	Eastern Cape	Dorp	Station	-32.5816666666667	27.8941666666667
Komga				RSA	Eastern Cape	Dorp	Urban Area	-32.5777777777778	27.8888888888889
Kommadagga				RSA	Eastern Cape	Nedersetting	Station	-33.1188888888889	25.9011111111111
